******************************************************************************************
                                   Port Baðlantý Kuruldu!!
******************************************************************************************
$GNRMC,222436.00,A,4044.68798,N,03136.83434,E,0.028,,181124,,,A,V*11
$GNVTG,,T,,M,0.028,N,0.051,K,A*33
$GNGGA,222436.00,4044.68798,N,03136.83434,E,1,12,0.58,750.4,M,36.4,M,,*4B
$GNGSA,A,3,18,29,27,23,10,15,26,16,,,,,1.05,0.58,0.88,1*08
$GNGSA,A,3,78,85,87,71,76,86,,,,,,,1.05,0.58,0.88,2*0F
$GNGSA,A,3,26,31,33,24,,,,,,,,,1.05,0.58,0.88,3*0A
$GNGSA,A,3,45,41,38,08,29,27,,,,,,,1.05,0.58,0.88,4*04
$GNGSA,A,3,,,,,,,,,,,,,1.05,0.58,0.88,5*0C
$GPGSV,3,1,10,08,07,307,33,10,46,194,36,15,22,066,17,16,53,266,27,1*62
$GPGSV,3,2,10,18,49,052,19,23,74,114,36,26,40,219,31,27,39,310,35,1*6F
$GPGSV,3,3,10,29,16,117,21,36,42,192,36,1*61
$GPGSV,2,1,08,08,07,307,25,10,46,194,34,15,22,066,17,18,49,052,19,6*65
$GPGSV,2,2,08,23,74,114,29,26,40,219,29,27,39,310,27,29,16,117,13,6*66
$GPGSV,1,1,02,13,05,039,,49,36,218,,0*69
$GLGSV,2,1,07,70,29,042,14,71,43,103,30,72,20,155,15,78,11,335,25,1*7C
$GLGSV,2,2,07,85,13,079,14,86,54,033,30,87,43,311,27,1*49
$GLGSV,2,1,05,71,43,103,24,76,25,223,18,78,11,335,26,85,13,079,08,3*72
$GLGSV,2,2,05,86,54,033,22,3*40
$GLGSV,1,1,01,77,36,276,,0*4E
$GAGSV,1,1,04,24,11,324,36,26,55,044,23,31,48,284,22,33,61,287,34,2*7C
$GAGSV,3,1,09,07,19,090,23,08,09,041,16,13,07,067,09,21,05,166,09,7*7F
$GAGSV,3,2,09,23,,,27,24,11,324,30,26,55,044,22,31,48,284,18,7*42
$GAGSV,3,3,09,33,61,287,28,7*4A
$GAGSV,1,1,02,12,11,258,,29,09,141,,0*7C
$GBGSV,2,1,07,08,31,038,25,27,50,079,34,29,15,290,24,32,42,146,15,1*7F
$GBGSV,2,2,07,38,19,041,19,41,40,067,29,45,14,309,36,1*4F
$GBGSV,1,1,01,08,31,038,28,B*3F
$GBGSV,3,1,12,02,21,115,,03,01,096,,10,01,131,,13,42,042,,0*7E
$GBGSV,3,2,12,20,04,188,,28,08,096,,30,66,324,,33,05,031,,0*7E
$GBGSV,3,3,12,36,24,258,,46,11,209,,60,24,118,,61,00,096,,0*71
$GQGSV,1,1,00,0*64
$GNGLL,4044.68798,N,03136.83434,E,222436.00,A,A*77
$GNRMC,222437.00,A,4044.68798,N,03136.83435,E,0.009,,181124,,,A,V*12
$GNVTG,,T,,M,0.009,N,0.017,K,A*32
$GNGGA,222437.00,4044.68798,N,03136.83435,E,1,12,0.57,750.5,M,36.4,M,,*45
$GNGSA,A,3,18,29,27,23,10,15,26,16,,,,,1.05,0.57,0.89,1*06
$GNGSA,A,3,78,85,87,71,76,86,,,,,,,1.05,0.57,0.89,2*01
$GNGSA,A,3,26,31,33,24,,,,,,,,,1.05,0.57,0.89,3*04
$GNGSA,A,3,45,41,08,32,29,27,,,,,,,1.05,0.57,0.89,4*00
$GNGSA,A,3,,,,,,,,,,,,,1.05,0.57,0.89,5*02
$GPGSV,3,1,10,08,07,307,33,10,46,194,35,15,22,066,18,16,53,266,26,1*6F
$GPGSV,3,2,10,18,49,052,20,23,74,114,37,26,40,219,31,27,39,310,35,1*64
$GPGSV,3,3,10,29,16,117,20,36,42,192,35,1*63
$GPGSV,2,1,08,08,07,307,27,10,46,194,34,15,22,066,17,18,49,052,19,6*67
$GPGSV,2,2,08,23,74,114,29,26,40,219,29,27,39,310,27,29,16,117,13,6*66
$GPGSV,1,1,02,13,05,039,,49,36,218,,0*69
$GLGSV,2,1,07,70,29,042,14,71,43,103,30,72,20,155,15,78,11,335,26,1*7F
$GLGSV,2,2,07,85,13,079,13,86,54,033,30,87,43,311,27,1*4E
$GLGSV,2,1,05,71,43,103,23,76,25,223,19,78,11,335,26,85,13,079,10,3*7D
$GLGSV,2,2,05,86,54,033,22,3*40
$GLGSV,1,1,01,77,36,276,,0*4E
$GAGSV,1,1,04,24,11,324,36,26,55,044,23,31,48,284,21,33,61,287,34,2*7F
$GAGSV,3,1,09,07,19,090,23,08,09,041,16,13,07,067,10,21,05,166,12,7*7D
$GAGSV,3,2,09,23,,,27,24,11,324,30,26,55,044,22,31,48,284,19,7*43
$GAGSV,3,3,09,33,61,287,28,7*4A
$GAGSV,1,1,02,12,11,258,,29,09,141,,0*7C
$GBGSV,2,1,07,08,31,038,25,27,50,079,33,29,15,290,25,32,42,146,16,1*7A
$GBGSV,2,2,07,38,19,041,23,41,40,067,30,45,14,309,35,1*4D
$GBGSV,1,1,01,08,31,038,28,B*3F
$GBGSV,3,1,12,02,21,115,,03,01,096,,10,01,131,,13,42,042,,0*7E
$GBGSV,3,2,12,20,04,188,,28,08,096,,30,66,324,,33,05,031,,0*7E
$GBGSV,3,3,12,36,24,258,,46,11,209,,60,24,118,,61,00,096,,0*71
$GQGSV,1,1,00,0*64
$GNGLL,4044.68798,N,03136.83435,E,222437.00,A,A*77
$GNRMC,222438.00,A,4044.68799,N,03136.83434,E,0.004,,181124,,,A,V*10
$GNVTG,,T,,M,0.004,N,0.008,K,A*31
$GNGGA,222438.00,4044.68799,N,03136.83434,E,1,12,0.57,750.5,M,36.4,M,,*4A
$GNGSA,A,3,18,29,27,23,10,15,26,16,,,,,1.05,0.57,0.89,1*06
$GNGSA,A,3,78,85,87,71,76,86,,,,,,,1.05,0.57,0.89,2*01
$GNGSA,A,3,26,31,33,24,,,,,,,,,1.05,0.57,0.89,3*04
$GNGSA,A,3,45,41,08,32,29,27,,,,,,,1.05,0.57,0.89,4*00
$GNGSA,A,3,,,,,,,,,,,,,1.05,0.57,0.89,5*02
$GPGSV,3,1,10,08,07,307,33,10,46,194,35,15,22,066,18,16,53,266,27,1*6E
$GPGSV,3,2,10,18,49,052,20,23,74,114,36,26,40,219,31,27,39,310,35,1*65
$GPGSV,3,3,10,29,16,117,20,36,42,192,35,1*63
$GPGSV,2,1,08,08,07,307,27,10,46,194,34,15,22,066,16,18,49,052,19,6*66
$GPGSV,2,2,08,23,74,114,29,26,40,219,29,27,39,310,27,29,16,117,14,6*61
$GPGSV,1,1,02,13,05,039,,49,36,218,,0*69
$GLGSV,2,1,07,70,29,042,15,71,43,103,30,72,20,155,16,78,11,335,27,1*7C
$GLGSV,2,2,07,85,13,079,14,86,54,033,30,87,43,311,28,1*46
$GLGSV,2,1,05,71,43,103,24,76,25,223,19,78,11,335,26,85,13,079,08,3*73
$GLGSV,2,2,05,86,54,033,23,3*41
$GLGSV,1,1,01,77,36,276,,0*4E
$GAGSV,1,1,04,24,11,324,36,26,55,044,24,31,48,284,19,33,61,287,34,2*73
$GAGSV,3,1,09,07,19,090,23,08,09,041,17,13,07,067,09,21,05,166,09,7*7E
$GAGSV,3,2,09,23,,,27,24,11,324,29,26,55,044,22,31,48,284,19,7*4B
$GAGSV,3,3,09,33,61,287,28,7*4A
$GAGSV,1,1,02,12,11,258,,29,09,141,,0*7C
$GBGSV,2,1,07,08,31,038,25,27,50,079,33,29,15,290,25,32,42,146,16,1*7A
$GBGSV,2,2,07,38,19,041,22,41,40,067,30,45,14,309,35,1*4C
$GBGSV,1,1,01,08,31,038,29,B*3E
$GBGSV,3,1,12,02,21,115,,03,01,096,,10,01,131,,13,42,042,,0*7E
$GBGSV,3,2,12,20,04,188,,28,08,096,,30,66,324,,33,05,031,,0*7E
$GBGSV,3,3,12,36,24,258,,46,11,209,,60,24,118,,61,00,096,,0*71
$GQGSV,1,1,00,0*64
$GNGLL,4044.68799,N,03136.83434,E,222438.00,A,A*78
$GNRMC,222439.00,A,4044.68799,N,03136.83435,E,0.012,,181124,,,A,V*17
$GNVTG,,T,,M,0.012,N,0.021,K,A*3D
$GNGGA,222439.00,4044.68799,N,03136.83435,E,1,12,0.56,750.5,M,36.4,M,,*4B
$GNGSA,A,3,18,29,27,23,10,15,26,16,,,,,1.04,0.56,0.88,1*07
$GNGSA,A,3,78,85,87,71,76,86,,,,,,,1.04,0.56,0.88,2*00
$GNGSA,A,3,26,31,33,24,,,,,,,,,1.04,0.56,0.88,3*05
$GNGSA,A,3,45,41,38,08,32,29,27,,,,,,1.04,0.56,0.88,4*0A
$GNGSA,A,3,,,,,,,,,,,,,1.04,0.56,0.88,5*03
$GPGSV,3,1,10,08,07,307,34,10,46,194,35,15,22,066,18,16,53,266,26,1*68
$GPGSV,3,2,10,18,49,052,20,23,74,114,36,26,40,219,31,27,39,310,35,1*65
$GPGSV,3,3,10,29,16,117,21,36,42,192,35,1*62
$GPGSV,2,1,08,08,07,307,27,10,46,194,34,15,22,066,15,18,49,052,19,6*65
$GPGSV,2,2,08,23,74,114,28,26,40,219,29,27,39,310,27,29,16,117,11,6*65
$GPGSV,1,1,02,13,05,039,,49,36,218,,0*69
$GLGSV,2,1,07,70,29,042,15,71,43,103,30,72,20,155,14,78,11,335,27,1*7E
$GLGSV,2,2,07,85,13,079,19,86,54,033,30,87,43,311,28,1*4B
$GLGSV,2,1,05,71,43,103,24,76,25,223,19,78,11,335,26,85,13,079,11,3*7B
$GLGSV,2,2,05,86,54,033,23,3*41
$GLGSV,1,1,01,77,36,276,,0*4E
$GAGSV,1,1,04,24,11,324,36,26,55,044,24,31,48,284,19,33,61,287,34,2*73
$GAGSV,3,1,09,07,19,090,23,08,09,041,18,13,07,067,07,21,05,166,11,7*76
$GAGSV,3,2,09,23,,,27,24,11,324,29,26,55,044,22,31,48,284,19,7*4B
$GAGSV,3,3,09,33,61,287,28,7*4A
$GAGSV,1,1,02,12,11,258,,29,09,141,,0*7C
$GBGSV,2,1,07,08,31,038,25,27,50,079,34,29,15,290,25,32,42,146,15,1*7E
$GBGSV,2,2,07,38,19,041,22,41,40,067,29,45,14,308,35,1*45
$GBGSV,1,1,01,08,31,038,29,B*3E
$GBGSV,3,1,12,02,21,115,,03,01,096,,10,01,131,,13,42,042,,0*7E
$GBGSV,3,2,12,20,04,188,,28,08,096,,30,66,324,,33,05,031,,0*7E
$GBGSV,3,3,12,36,24,258,,46,11,209,,60,24,118,,61,00,096,,0*71
$GQGSV,1,1,00,0*64
$GNGLL,4044.68799,N,03136.83435,E,222439.00,A,A*78
$GNRMC,222440.00,A,4044.68798,N,03136.83436,E,0.035,,181124,,,A,V*1E
$GNVTG,,T,,M,0.035,N,0.066,K,A*3B
$GNGGA,222440.00,4044.68798,N,03136.83436,E,1,12,0.56,750.5,M,36.4,M,,*47
$GNGSA,A,3,18,29,27,23,10,15,26,16,,,,,1.04,0.56,0.88,1*07
$GNGSA,A,3,78,85,87,71,76,86,,,,,,,1.04,0.56,0.88,2*00
$GNGSA,A,3,26,31,33,24,,,,,,,,,1.04,0.56,0.88,3*05
$GNGSA,A,3,45,41,38,08,32,29,27,,,,,,1.04,0.56,0.88,4*0A
$GNGSA,A,3,,,,,,,,,,,,,1.04,0.56,0.88,5*03
$GPGSV,3,1,10,08,07,307,34,10,46,194,35,15,22,066,18,16,53,266,26,1*68
$GPGSV,3,2,10,18,49,052,20,23,74,114,37,26,40,219,31,27,39,310,35,1*64
$GPGSV,3,3,10,29,16,117,21,36,42,192,35,1*62
$GPGSV,2,1,08,08,07,307,27,10,46,194,34,15,22,066,16,18,49,052,19,6*66
$GPGSV,2,2,08,23,74,114,28,26,40,219,29,27,39,310,27,29,16,117,12,6*66
$GPGSV,1,1,02,13,05,039,,49,36,218,,0*69
$GLGSV,2,1,07,70,29,042,15,71,43,103,30,72,20,155,13,78,11,335,27,1*79
$GLGSV,2,2,07,85,13,079,17,86,54,033,30,87,43,311,28,1*45
$GLGSV,2,1,05,71,43,103,23,76,25,223,19,78,11,335,26,85,13,079,08,3*74
$GLGSV,2,2,05,86,54,033,23,3*41
$GLGSV,1,1,01,77,36,276,,0*4E
$GAGSV,1,1,04,24,11,324,36,26,55,044,23,31,48,284,18,33,61,287,34,2*75
$GAGSV,3,1,09,07,19,090,23,08,09,041,18,13,07,067,10,21,05,166,10,7*71
$GAGSV,3,2,09,23,,,27,24,11,324,29,26,55,044,21,31,48,284,19,7*48
$GAGSV,3,3,09,33,61,287,27,7*45
$GAGSV,1,1,02,12,11,258,,29,09,141,,0*7C
$GBGSV,2,1,08,08,31,038,25,27,50,079,33,29,15,290,25,30,66,324,24,1*76
$GBGSV,2,2,08,32,42,146,16,38,19,041,21,41,40,067,29,45,14,308,35,1*7A
$GBGSV,1,1,01,08,31,038,28,B*3F
$GBGSV,3,1,11,02,21,115,,03,01,096,,10,01,131,,13,42,042,,0*7D
$GBGSV,3,2,11,20,04,188,,28,08,096,,33,05,031,,36,24,258,,0*77
$GBGSV,3,3,11,46,10,209,,60,24,118,,61,00,096,,0*4F
$GQGSV,1,1,00,0*64
$GNGLL,4044.68798,N,03136.83436,E,222440.00,A,A*74
