******************************************************************************************
                                   Port Baðlantý Kuruldu!!
******************************************************************************************
$GNRMC,151332.00,A,4044.68557,N,03136.83446,E,0.044,,181124,,,D,V*1E
$GNVTG,,T,,M,0.044,N,0.081,K,D*31

$GNGGA,151332.00,4044.68557,N,03136.83446,E,2,12,0.88,749.3,M,36.4,M,,0123*4A
$GNGSA,A,3,06,12,17,22,24,19,25,,,,,,1.40,0.88,1.08,1*07

$GNGSA,A,3,74,82,72,80,83,73,71,,,,,,1.40,0.88,1.08,2*03
$GNGSA,A,3,,,,,,,,,,,,,1.40,0.88,1.08,3*0F
$GNGSA,A,3,23,10,12,11,25,,,,,,,,1.40,0.88,1.08,4*0C
$GNGSA,A,3,,,,,,,,,,,,,1.40,0.88,1.08,5*09
$GPGSV,3,1,10,06,31,103,26,12,54,290,28,15,18,207,17,17,22,045,21,1*6C
$GPGSV,3,2,10,19,52,055,19,22,19,073,21,24,81,264,30,25,15,274,23,1*63

$GPGSV,3,3,10,32,08,325,32,36,42,192,33,1*60
$GPGSV,2,1,05,06,31,103,25,12,54,290,30,17,22,045,17,24,81,264,17,6*66
$GPGSV,2,2,05,32,08,325,26,6*5F

$GPGSV,1,1,03,11,18,145,,13,08,176,,49,36,218,,0*56
$GLGSV,2,1,08,71,26,262,07,72,21,315,26,73,55,336,28,74,19,301,17,1*72
$GLGSV,2,2,08,80,42,073,29,81,07,022,26,82,44,055,23,83,50,124,13,1*7B

$GLGSV,2,1,07,71,26,262,16,72,21,315,34,73,55,336,18,80,42,073,20,3*78
$GLGSV,2,2,07,81,07,022,23,82,44,055,29,83,50,124,27,3*4F
$GLGSV,1,1,02,70,06,218,,84,06,177,,0*7A

$GAGSV,1,1,01,14,39,059,14,2*41
$GAGSV,1,1,01,14,39,059,32,7*40
$GBGSV,2,1,05,10,36,058,24,11,57,100,33,20,09,312,31,23,69,326,25,1*7B
$GBGSV,2,2,05,25,49,097,33,1*47

$GBGSV,1,1,03,10,36,058,16,11,57,100,34,12,21,042,27,B*3F
$GQGSV,1,1,00,0*64
$GNGLL,4044.68557,N,03136.83446,E,151332.00,A,D*72

$GNRMC,151333.00,A,4044.68562,N,03136.83446,E,0.050,,181124,,,D,V*1C
$GNVTG,,T,,M,0.050,N,0.093,K,D*37

$GNGGA,151333.00,4044.68562,N,03136.83446,E,2,12,0.88,749.5,M,36.4,M,,0123*4B
$GNGSA,A,3,06,12,17,22,24,19,25,,,,,,1.40,0.88,1.08,1*07

$GNGSA,A,3,74,82,72,80,83,73,71,,,,,,1.40,0.88,1.08,2*03

$GNGSA,A,3,,,,,,,,,,,,,1.40,0.88,1.08,3*0F
$GNGSA,A,3,23,10,12,11,25,,,,,,,,1.40,0.88,1.08,4*0C
$GNGSA,A,3,,,,,,,,,,,,,1.40,0.88,1.08,5*09
$GPGSV,3,1,10,06,31,103,27,12,54,290,28,15,18,207,17,17,22,045,20,1*6C

$GPGSV,3,2,10,19,52,055,19,22,19,073,21,24,81,264,30,25,15,274,23,1*63
$GPGSV,3,3,10,32,08,325,32,36,42,192,34,1*67
$GPGSV,2,1,05,06,31,103,25,12,54,290,30,17,22,045,17,24,81,264,17,6*66

$GPGSV,2,2,05,32,08,325,26,6*5F

$GPGSV,1,1,03,11,18,145,,13,08,176,,49,36,218,,0*56

$GLGSV,2,1,08,71,26,262,11,72,21,315,26,73,55,336,28,74,19,301,16,1*74
$GLGSV,2,2,08,80,42,073,29,81,07,022,26,82,44,055,21,83,50,124,13,1*79

$GLGSV,2,1,07,71,26,262,15,72,21,315,33,73,55,336,19,80,42,073,20,3*7D

$GLGSV,2,2,07,81,07,022,23,82,44,055,29,83,50,124,27,3*4F
$GLGSV,1,1,02,70,06,218,,84,06,177,,0*7A

$GAGSV,1,1,01,14,39,059,12,2*47
$GAGSV,1,1,01,14,39,059,31,7*43
$GBGSV,2,1,05,10,36,058,24,11,57,100,33,20,09,312,31,23,69,326,25,1*7B

$GBGSV,2,2,05,25,49,097,34,1*40
$GBGSV,1,1,03,10,36,058,15,11,57,100,34,12,21,042,27,B*3C

$GQGSV,1,1,00,0*64
$GNGLL,4044.68562,N,03136.83446,E,151333.00,A,D*75

$GNRMC,151334.00,A,4044.68563,N,03136.83446,E,0.070,,181124,,,D,V*18
$GNVTG,,T,,M,0.070,N,0.131,K,D*3C

$GNGGA,151334.00,4044.68563,N,03136.83446,E,2,12,0.88,749.5,M,36.4,M,,0123*4D
$GNGSA,A,3,06,12,17,22,24,19,25,,,,,,1.40,0.88,1.08,1*07
$GNGSA,A,3,74,82,72,80,83,73,71,,,,,,1.40,0.88,1.08,2*03
$GNGSA,A,3,,,,,,,,,,,,,1.40,0.88,1.08,3*0F

$GNGSA,A,3,23,10,12,11,25,,,,,,,,1.40,0.88,1.08,4*0C
$GNGSA,A,3,,,,,,,,,,,,,1.40,0.88,1.08,5*09
$GPGSV,3,1,10,06,31,103,27,12,54,290,29,15,18,207,17,17,22,045,21,1*6C
$GPGSV,3,2,10,19,52,055,19,22,19,073,21,24,81,264,30,25,15,274,24,1*64
$GPGSV,3,3,10,32,08,325,32,36,42,192,34,1*67
$GPGSV,2,1,05,06,31,103,25,12,54,290,30,17,22,045,17,24,81,264,18,6*69

$GPGSV,2,2,05,32,08,325,26,6*5F
$GPGSV,1,1,03,11,18,145,,13,08,176,,49,36,218,,0*56
$GLGSV,2,1,08,71,25,262,09,72,21,315,26,73,55,336,28,74,19,301,15,1*7D

$GLGSV,2,2,08,80,42,073,29,81,07,022,25,82,44,055,21,83,50,124,13,1*7A
$GLGSV,2,1,07,71,25,262,15,72,21,315,33,73,55,336,20,80,42,073,20,3*74
$GLGSV,2,2,07,81,07,022,23,82,44,055,29,83,50,124,27,3*4F
$GLGSV,1,1,02,70,06,218,,84,06,177,,0*7A

$GAGSV,1,1,01,14,39,059,12,2*47
$GAGSV,1,1,01,14,39,059,32,7*40
$GBGSV,2,1,05,10,36,058,24,11,57,100,33,20,09,312,31,23,69,326,25,1*7B
$GBGSV,2,2,05,25,49,097,34,1*40
$GBGSV,1,1,03,10,36,058,14,11,57,100,34,12,21,042,27,B*3D
$GQGSV,1,1,00,0*64

$GNGLL,4044.68563,N,03136.83446,E,151334.00,A,D*73

$GNRMC,151335.00,A,4044.68568,N,03136.83448,E,0.035,,181124,,,D,V*1D

$GNVTG,,T,,M,0.035,N,0.065,K,D*3D

$GNGGA,151335.00,4044.68568,N,03136.83448,E,2,12,0.88,749.6,M,36.4,M,,0123*4A
$GNGSA,A,3,06,12,17,22,24,19,25,,,,,,1.40,0.88,1.08,1*07
$GNGSA,A,3,74,82,72,80,83,73,71,,,,,,1.40,0.88,1.08,2*03
$GNGSA,A,3,,,,,,,,,,,,,1.40,0.88,1.08,3*0F
$GNGSA,A,3,23,10,12,11,25,,,,,,,,1.40,0.88,1.08,4*0C
$GNGSA,A,3,,,,,,,,,,,,,1.40,0.88,1.08,5*09
$GPGSV,3,1,10,06,31,103,27,12,54,290,29,15,18,207,17,17,22,045,20,1*6D
$GPGSV,3,2,10,19,52,055,18,22,19,073,21,24,81,264,30,25,15,274,23,1*62

$GPGSV,3,3,10,32,08,325,32,36,42,192,34,1*67
$GPGSV,2,1,05,06,31,103,25,12,54,290,30,17,22,045,17,24,81,264,18,6*69
$GPGSV,2,2,05,32,08,325,25,6*5C
$GPGSV,1,1,03,11,18,145,,13,08,176,,49,36,218,,0*56
$GLGSV,2,1,08,71,25,262,09,72,21,314,26,73,55,336,28,74,19,301,16,1*7F
$GLGSV,2,2,08,80,42,073,29,81,07,022,26,82,44,055,21,83,50,124,08,1*73
$GLGSV,2,1,07,71,25,262,15,72,21,314,33,73,55,336,21,80,42,073,20,3*74

$GLGSV,2,2,07,81,07,022,23,82,44,055,29,83,50,124,26,3*4E
$GLGSV,1,1,02,70,06,218,,84,06,177,,0*7A
$GAGSV,1,1,01,14,39,059,12,2*47
$GAGSV,1,1,01,14,39,059,32,7*40
$GBGSV,2,1,06,10,36,058,24,11,57,100,33,12,21,042,13,20,09,312,31,1*72
$GBGSV,2,2,06,23,69,326,25,25,49,097,34,1*7D
$GBGSV,1,1,03,10,36,058,14,11,57,100,34,12,21,042,27,B*3D
$GQGSV,1,1,00,0*64
$GNGLL,4044.68568,N,03136.83448,E,151335.00,A,D*77

$GNRMC,151336.00,A,4044.68568,N,03136.83448,E,0.035,,181124,,,D,V*1E
$GNVTG,,T,,M,0.035,N,0.065,K,D*3D

$GNGGA,151336.00,4044.68568,N,03136.83448,E,2,12,0.88,749.7,M,36.4,M,,0123*48
$GNGSA,A,3,06,12,17,22,24,19,25,,,,,,1.40,0.88,1.08,1*07

$GNGSA,A,3,74,82,72,80,83,73,71,,,,,,1.40,0.88,1.08,2*03
$GNGSA,A,3,,,,,,,,,,,,,1.40,0.88,1.08,3*0F
$GNGSA,A,3,23,10,12,11,25,,,,,,,,1.40,0.88,1.08,4*0C
$GNGSA,A,3,,,,,,,,,,,,,1.40,0.88,1.08,5*09
$GPGSV,3,1,10,06,31,103,27,12,54,290,28,15,18,207,17,17,22,045,20,1*6C
$GPGSV,3,2,10,19,52,055,19,22,19,073,21,24,81,264,30,25,15,274,23,1*63
$GPGSV,3,3,10,32,08,325,32,36,42,192,33,1*60
$GPGSV,2,1,05,06,31,103,25,12,54,290,30,17,22,045,16,24,81,264,18,6*68
$GPGSV,2,2,05,32,08,325,26,6*5F
$GPGSV,1,1,03,11,18,145,,13,08,176,,49,36,218,,0*56
$GLGSV,2,1,08,71,25,262,09,72,21,314,26,73,55,337,28,74,19,301,16,1*7E

$GLGSV,2,2,08,80,42,073,29,81,07,022,25,82,44,055,21,83,50,124,08,1*70
$GLGSV,2,1,07,71,25,262,16,72,21,314,33,73,55,337,22,80,42,073,20,3*75
$GLGSV,2,2,07,81,07,022,24,82,44,055,29,83,50,124,27,3*48
$GLGSV,1,1,02,70,06,218,,84,06,177,,0*7A
$GAGSV,1,1,01,14,39,059,12,2*47
$GAGSV,1,1,01,14,39,059,32,7*40

$GBGSV,2,1,06,10,36,058,24,11,57,100,33,12,21,042,10,20,09,312,32,1*72
$GBGSV,2,2,06,23,69,326,25,25,49,097,34,1*7D
$GBGSV,1,1,03,10,36,058,11,11,57,100,34,12,21,042,27,B*38
$GQGSV,1,1,00,0*64
$GNGLL,4044.68568,N,03136.83448,E,151336.00,A,D*74

$GNRMC,151337.00,A,4044.68570,N,03136.83448,E,0.026,,181124,,,D,V*14

$GNVTG,,T,,M,0.026,N,0.048,K,D*30

$GNGGA,151337.00,4044.68570,N,03136.83448,E,2,12,0.88,749.7,M,36.4,M,,0123*40
$GNGSA,A,3,06,12,17,22,24,19,25,,,,,,1.40,0.88,1.08,1*07
$GNGSA,A,3,74,82,72,80,83,73,71,,,,,,1.40,0.88,1.08,2*03
$GNGSA,A,3,,,,,,,,,,,,,1.40,0.88,1.08,3*0F
$GNGSA,A,3,23,10,12,11,25,,,,,,,,1.40,0.88,1.08,4*0C
$GNGSA,A,3,,,,,,,,,,,,,1.40,0.88,1.08,5*09
$GPGSV,3,1,10,06,31,103,26,12,54,290,28,15,18,207,18,17,22,045,20,1*62
$GPGSV,3,2,10,19,52,055,19,22,19,073,20,24,81,264,30,25,15,274,22,1*63
$GPGSV,3,3,10,32,08,325,32,36,42,192,33,1*60

$GPGSV,2,1,05,06,31,103,26,12,54,290,30,17,22,045,15,24,81,264,18,6*68
$GPGSV,2,2,05,32,08,325,26,6*5F
$GPGSV,1,1,03,11,18,145,,13,08,176,,49,36,218,,0*56

$GLGSV,2,1,08,71,25,262,12,72,21,314,26,73,55,337,31,74,19,301,14,1*7E
$GLGSV,2,2,08,80,42,073,31,81,07,022,26,82,44,055,21,83,50,124,09,1*7B
$GLGSV,2,1,07,71,25,262,17,72,21,314,34,73,55,337,22,80,42,073,21,3*72
$GLGSV,2,2,07,81,07,022,23,82,44,055,29,83,50,124,27,3*4F
$GLGSV,1,1,02,70,06,218,,84,06,177,,0*7A
$GAGSV,1,1,01,14,39,059,32,7*40
$GBGSV,2,1,06,10,36,058,23,11,57,100,33,12,21,042,08,20,09,312,32,1*7C
$GBGSV,2,2,06,23,69,326,24,25,49,097,34,1*7C
$GBGSV,1,1,03,10,36,058,11,11,57,100,34,12,21,042,27,B*38
$GQGSV,1,1,00,0*64
$GNGLL,4044.68570,N,03136.83448,E,151337.00,A,D*7C

$GNRMC,151338.00,A,4044.68570,N,03136.83448,E,0.065,,181124,,,D,V*1C

$GNVTG,,T,,M,0.065,N,0.120,K,D*38
$GNGGA,151338.00,4044.68570,N,03136.83448,E,2,12,0.88,749.7,M,36.4,M,,0123*4F

$GNGSA,A,3,06,12,17,22,24,19,25,,,,,,1.40,0.88,1.08,1*07
$GNGSA,A,3,74,82,72,80,83,73,71,,,,,,1.40,0.88,1.08,2*03
$GNGSA,A,3,,,,,,,,,,,,,1.40,0.88,1.08,3*0F
$GNGSA,A,3,23,10,12,11,25,,,,,,,,1.40,0.88,1.08,4*0C
$GNGSA,A,3,,,,,,,,,,,,,1.40,0.88,1.08,5*09
$GPGSV,3,1,10,06,31,103,26,12,54,290,28,15,18,207,19,17,22,045,20,1*63
$GPGSV,3,2,10,19,52,055,18,22,19,073,20,24,81,264,30,25,15,274,22,1*62

$GPGSV,3,3,10,32,08,325,32,36,42,192,33,1*60
$GPGSV,2,1,05,06,31,103,25,12,54,290,30,17,22,045,15,24,81,264,18,6*6B
$GPGSV,2,2,05,32,08,325,26,6*5F

$GPGSV,1,1,03,11,18,145,,13,08,176,,49,36,218,,0*56
$GLGSV,2,1,08,71,25,262,11,72,21,314,27,73,55,337,32,74,19,301,14,1*7F
$GLGSV,2,2,08,80,42,073,31,81,07,022,26,82,44,055,22,83,50,124,09,1*78

$GLGSV,2,1,07,71,25,262,17,72,21,314,34,73,55,337,23,80,42,073,21,3*73
$GLGSV,2,2,07,81,07,022,23,82,44,055,29,83,50,124,27,3*4F
$GLGSV,1,1,02,70,06,218,,84,06,177,,0*7A
$GAGSV,1,1,01,14,39,059,32,7*40

$GBGSV,2,1,06,10,36,058,24,11,57,100,33,12,21,042,07,20,09,312,31,1*77

$GBGSV,2,2,06,23,69,326,23,25,49,097,34,1*7B
$GBGSV,1,1,03,10,36,058,10,11,57,100,34,12,21,042,28,B*36
$GQGSV,1,1,00,0*64
$GNGLL,4044.68570,N,03136.83448,E,151338.00,A,D*73

$GNRMC,151339.00,A,4044.68570,N,03136.83448,E,0.064,,181124,,,D,V*1C
$GNVTG,,T,,M,0.064,N,0.119,K,D*33

$GNGGA,151339.00,4044.68570,N,03136.83448,E,2,12,0.88,749.6,M,36.4,M,,0123*4F
$GNGSA,A,3,06,12,17,22,24,19,25,,,,,,1.40,0.88,1.08,1*07
$GNGSA,A,3,74,82,72,80,83,73,71,,,,,,1.40,0.88,1.08,2*03
$GNGSA,A,3,,,,,,,,,,,,,1.40,0.88,1.08,3*0F

$GNGSA,A,3,23,10,12,11,25,,,,,,,,1.40,0.88,1.08,4*0C
$GNGSA,A,3,,,,,,,,,,,,,1.40,0.88,1.08,5*09
$GPGSV,3,1,10,06,31,103,25,12,54,290,28,15,18,207,19,17,22,045,20,1*60
$GPGSV,3,2,10,19,52,055,18,22,19,073,20,24,81,264,30,25,15,274,22,1*62
$GPGSV,3,3,10,32,08,325,32,36,42,192,33,1*60
$GPGSV,2,1,05,06,31,103,25,12,54,290,31,17,22,045,16,24,81,264,18,6*69
$GPGSV,2,2,05,32,08,325,27,6*5E
$GPGSV,1,1,03,11,18,145,,13,08,176,,49,36,218,,0*56
$GLGSV,2,1,08,71,25,262,14,72,21,314,28,73,55,337,33,74,19,301,14,1*74

$GLGSV,2,2,08,80,42,073,32,81,07,022,27,82,44,055,23,83,50,124,09,1*7B
$GLGSV,2,1,07,71,25,262,16,72,21,314,34,73,55,337,24,80,42,073,20,3*74
$GLGSV,2,2,07,81,07,022,23,82,44,055,29,83,50,124,27,3*4F
$GLGSV,1,1,02,70,06,218,,84,06,177,,0*7A
$GAGSV,1,1,01,14,39,059,32,7*40
$GBGSV,2,1,06,10,36,058,24,11,57,100,33,12,21,042,08,20,09,312,31,1*78
$GBGSV,2,2,06,23,69,326,22,25,49,097,34,1*7A
$GBGSV,1,1,03,10,36,058,11,11,57,100,34,12,21,042,28,B*37
$GQGSV,1,1,00,0*64
$GNGLL,4044.68570,N,03136.83448,E,151339.00,A,D*72

$GNRMC,151340.00,A,4044.68568,N,03136.83449,E,0.022,,181124,,,D,V*18
$GNVTG,,T,,M,0.022,N,0.040,K,D*3C

$GNGGA,151340.00,4044.68568,N,03136.83449,E,2,12,0.88,749.6,M,36.4,M,,0123*49
$GNGSA,A,3,06,12,17,22,24,19,25,,,,,,1.40,0.88,1.08,1*07

$GNGSA,A,3,74,82,72,80,83,73,71,,,,,,1.40,0.88,1.08,2*03
$GNGSA,A,3,,,,,,,,,,,,,1.40,0.88,1.08,3*0F
$GNGSA,A,3,23,10,12,11,25,,,,,,,,1.40,0.88,1.08,4*0C
$GNGSA,A,3,,,,,,,,,,,,,1.40,0.88,1.08,5*09

$GPGSV,3,1,10,06,31,103,24,12,54,290,27,15,18,207,19,17,22,045,21,1*6F
$GPGSV,3,2,10,19,52,055,18,22,19,073,20,24,81,264,30,25,15,274,22,1*62
$GPGSV,3,3,10,32,08,325,29,36,42,192,33,1*6A
$GPGSV,2,1,05,06,31,103,25,12,54,290,31,17,22,045,17,24,81,264,18,6*68
$GPGSV,2,2,05,32,08,325,27,6*5E

$GPGSV,1,1,03,11,18,145,,13,08,176,,49,36,218,,0*56
$GLGSV,2,1,08,71,25,262,16,72,21,314,29,73,55,337,34,74,19,301,14,1*70
$GLGSV,2,2,08,80,42,073,31,81,07,022,28,82,44,055,24,83,50,124,09,1*70

$GLGSV,2,1,07,71,25,262,17,72,21,314,34,73,55,337,24,80,42,073,21,3*74
$GLGSV,2,2,07,81,07,022,24,82,44,055,29,83,50,124,27,3*48
$GLGSV,1,1,02,70,06,218,,84,06,177,,0*7A
$GAGSV,1,1,01,14,39,059,32,7*40
$GBGSV,2,1,06,10,36,058,25,11,57,100,33,12,21,042,07,20,09,312,22,1*74
$GBGSV,2,2,06,23,69,326,21,25,49,097,34,1*79

$GBGSV,1,1,03,10,36,058,09,11,57,100,35,12,21,042,28,B*3F
$GQGSV,1,1,00,0*64
$GNGLL,4044.68568,N,03136.83449,E,151340.00,A,D*74

$GNRMC,151341.00,A,4044.68559,N,03136.83450,E,0.028,,181124,,,D,V*19
$GNVTG,,T,,M,0.028,N,0.051,K,D*36

$GNGGA,151341.00,4044.68559,N,03136.83450,E,2,12,0.88,749.3,M,36.4,M,,0123*47
$GNGSA,A,3,06,12,17,22,24,19,25,,,,,,1.40,0.88,1.08,1*07
$GNGSA,A,3,74,82,72,80,83,73,71,,,,,,1.40,0.88,1.08,2*03
$GNGSA,A,3,,,,,,,,,,,,,1.40,0.88,1.08,3*0F
$GNGSA,A,3,23,10,12,11,25,,,,,,,,1.40,0.88,1.08,4*0C

$GNGSA,A,3,,,,,,,,,,,,,1.40,0.88,1.08,5*09
$GPGSV,3,1,10,06,31,103,25,12,54,290,26,15,18,207,21,17,22,045,22,1*67

$GPGSV,3,2,10,19,52,055,18,22,19,073,22,24,81,264,30,25,15,274,21,1*63
$GPGSV,3,3,10,32,08,325,30,36,42,192,36,1*67

$GPGSV,2,1,05,06,31,103,24,12,54,290,31,17,22,045,16,24,81,264,20,6*63
$GPGSV,2,2,05,32,08,325,29,6*50
$GPGSV,1,1,03,11,18,145,,13,08,176,,49,36,218,,0*56
$GLGSV,2,1,08,71,25,262,15,72,21,314,29,73,55,337,37,74,19,301,13,1*77
$GLGSV,2,2,08,80,42,073,34,81,07,022,26,82,44,055,25,83,50,124,13,1*71

$GLGSV,2,1,07,71,25,262,18,72,21,314,33,73,55,337,23,80,42,073,21,3*7B
$GLGSV,2,2,07,81,07,022,23,82,44,055,28,83,50,124,27,3*4E
$GLGSV,1,1,02,70,06,218,,84,06,177,,0*7A
$GAGSV,1,1,01,14,39,059,33,7*41
$GBGSV,2,1,06,10,36,058,25,11,57,100,33,12,21,042,07,20,09,312,33,1*74

$GBGSV,2,2,06,23,69,326,18,25,49,097,35,1*72
$GBGSV,1,1,03,10,36,058,11,11,57,100,35,12,21,042,29,B*37
$GQGSV,1,1,00,0*64
$GNGLL,4044.68559,N,03136.83450,E,151341.00,A,D*7F

$GNRMC,151342.00,A,4044.68554,N,03136.83452,E,0.035,,181124,,,D,V*19

$GNVTG,,T,,M,0.035,N,0.064,K,D*3C

$GNGGA,151342.00,4044.68554,N,03136.83452,E,2,12,0.89,749.2,M,36.4,M,,0123*4B
$GNGSA,A,3,06,12,17,22,24,19,25,,,,,,1.42,0.89,1.11,1*0C
$GNGSA,A,3,82,72,80,83,73,71,,,,,,,1.42,0.89,1.11,2*0B
$GNGSA,A,3,,,,,,,,,,,,,1.42,0.89,1.11,3*04
$GNGSA,A,3,23,10,12,11,25,,,,,,,,1.42,0.89,1.11,4*07
$GNGSA,A,3,,,,,,,,,,,,,1.42,0.89,1.11,5*02
$GPGSV,3,1,10,06,31,103,24,12,54,290,25,15,18,207,20,17,22,045,23,1*65
$GPGSV,3,2,10,19,52,055,16,22,19,073,22,24,81,264,30,25,15,274,21,1*6D
$GPGSV,3,3,10,32,08,325,31,36,42,192,35,1*65
$GPGSV,2,1,05,06,31,103,22,12,54,290,31,17,22,045,16,24,81,264,20,6*65

$GPGSV,2,2,05,32,08,325,29,6*50
$GPGSV,1,1,03,11,18,145,,13,08,176,,49,36,218,,0*56
$GLGSV,2,1,08,71,25,262,18,72,21,314,28,73,55,337,37,74,19,301,10,1*78
$GLGSV,2,2,08,80,42,073,32,81,07,022,25,82,44,055,25,83,50,124,10,1*77
$GLGSV,2,1,07,71,25,262,19,72,21,314,33,73,55,337,22,80,42,073,22,3*78
$GLGSV,2,2,07,81,07,022,22,82,44,055,28,83,50,124,27,3*4F
$GLGSV,1,1,02,70,06,218,,84,06,177,,0*7A
$GAGSV,1,1,01,14,39,059,32,7*40
$GBGSV,2,1,06,10,36,058,25,11,57,100,33,12,21,042,07,20,09,312,33,1*74

$GBGSV,2,2,06,23,69,326,16,25,49,097,35,1*7C
$GBGSV,1,1,03,10,36,058,15,11,57,100,35,12,21,042,29,B*33
$GQGSV,1,1,00,0*64
$GNGLL,4044.68554,N,03136.83452,E,151342.00,A,D*73

$GNRMC,151343.00,A,4044.68549,N,03136.83454,E,0.022,,181124,,,D,V*14
$GNVTG,,T,,M,0.022,N,0.041,K,D*3D

$GNGGA,151343.00,4044.68549,N,03136.83454,E,2,12,0.88,749.1,M,36.4,M,,0123*42

$GNGSA,A,3,06,12,17,22,24,19,25,,,,,,1.40,0.88,1.08,1*07
$GNGSA,A,3,74,82,72,80,83,73,71,,,,,,1.40,0.88,1.08,2*03
$GNGSA,A,3,,,,,,,,,,,,,1.40,0.88,1.08,3*0F
$GNGSA,A,3,23,10,12,11,25,,,,,,,,1.40,0.88,1.08,4*0C
$GNGSA,A,3,,,,,,,,,,,,,1.40,0.88,1.08,5*09

$GPGSV,3,1,10,06,31,103,24,12,54,290,25,15,18,207,20,17,22,045,25,1*63
$GPGSV,3,2,10,19,52,055,16,22,19,073,22,24,81,264,30,25,15,274,20,1*6C
$GPGSV,3,3,10,32,08,325,31,36,42,192,35,1*65
$GPGSV,2,1,05,06,31,103,21,12,54,290,32,17,22,045,17,24,81,264,22,6*66
$GPGSV,2,2,05,32,08,325,29,6*50

$GPGSV,1,1,03,11,18,145,,13,08,176,,49,36,218,,0*56
$GLGSV,2,1,08,71,25,262,17,72,21,314,28,73,55,337,37,74,19,301,08,1*7E
$GLGSV,2,2,08,80,42,073,32,81,07,022,25,82,44,055,25,83,50,124,10,1*77

$GLGSV,2,1,07,71,25,262,19,72,21,314,33,73,55,337,21,80,42,073,23,3*7A
$GLGSV,2,2,07,81,07,022,21,82,44,055,28,83,50,124,27,3*4C
$GLGSV,1,1,02,70,06,218,,84,06,177,,0*7A
$GAGSV,1,1,01,14,39,059,32,7*40
$GBGSV,2,1,06,10,36,058,26,11,57,100,33,12,21,042,07,20,09,312,33,1*77

$GBGSV,2,2,06,23,69,326,14,25,49,097,35,1*7E
$GBGSV,1,1,03,10,36,058,16,11,57,100,35,12,21,042,29,B*30
$GQGSV,1,1,00,0*64

$GNGLL,4044.68549,N,03136.83454,E,151343.00,A,D*78

$GNRMC,151344.00,A,4044.68540,N,03136.83455,E,0.095,,181124,,,D,V*17
$GNVTG,,T,,M,0.095,N,0.176,K,D*34

$GNGGA,151344.00,4044.68540,N,03136.83455,E,2,12,0.89,748.8,M,36.4,M,,0123*44
$GNGSA,A,3,06,12,17,22,24,19,25,,,,,,1.42,0.89,1.11,1*0C
$GNGSA,A,3,74,82,72,80,83,73,71,,,,,,1.42,0.89,1.11,2*08
$GNGSA,A,3,,,,,,,,,,,,,1.42,0.89,1.11,3*04

$GNGSA,A,3,23,10,12,11,25,,,,,,,,1.42,0.89,1.11,4*07
$GNGSA,A,3,,,,,,,,,,,,,1.42,0.89,1.11,5*02
$GPGSV,3,1,10,06,31,103,24,12,54,290,24,15,18,207,20,17,22,045,25,1*62
$GPGSV,3,2,10,19,52,055,16,22,19,073,22,24,81,264,29,25,15,274,20,1*64
$GPGSV,3,3,10,32,08,325,31,36,42,192,35,1*65
$GPGSV,2,1,05,06,31,103,21,12,54,290,31,17,22,045,16,24,81,264,21,6*67
$GPGSV,2,2,05,32,08,325,29,6*50
$GPGSV,1,1,03,11,18,145,,13,08,176,,49,36,218,,0*56
$GLGSV,2,1,08,71,25,262,15,72,21,314,28,73,55,337,37,74,19,301,07,1*73
$GLGSV,2,2,08,80,42,073,32,81,07,022,25,82,44,055,26,83,50,124,11,1*75
$GLGSV,2,1,07,71,25,262,18,72,21,314,33,73,55,337,21,80,42,073,23,3*7B
$GLGSV,2,2,07,81,07,022,21,82,44,055,28,83,50,124,27,3*4C
$GLGSV,1,1,02,70,06,218,,84,06,177,,0*7A
$GAGSV,1,1,01,14,39,059,33,7*41

$GBGSV,2,1,06,10,36,058,26,11,57,100,33,12,21,042,08,20,09,312,33,1*78
$GBGSV,2,2,06,23,69,326,13,25,49,097,35,1*79
$GBGSV,1,1,03,10,36,058,17,11,57,100,35,12,21,042,29,B*31
$GQGSV,1,1,00,0*64
$GNGLL,4044.68540,N,03136.83455,E,151344.00,A,D*77

$GNRMC,151345.00,A,4044.68533,N,03136.83457,E,0.117,,181124,,,D,V*1B
$GNVTG,,T,,M,0.117,N,0.217,K,D*3B

$GNGGA,151345.00,4044.68533,N,03136.83457,E,2,12,0.89,748.7,M,36.4,M,,0123*4C
$GNGSA,A,3,06,12,17,22,24,19,25,,,,,,1.42,0.89,1.11,1*0C

$GNGSA,A,3,74,82,72,80,83,73,71,,,,,,1.42,0.89,1.11,2*08
$GNGSA,A,3,,,,,,,,,,,,,1.42,0.89,1.11,3*04
$GNGSA,A,3,23,10,12,11,25,,,,,,,,1.42,0.89,1.11,4*07
$GNGSA,A,3,,,,,,,,,,,,,1.42,0.89,1.11,5*02

$GPGSV,3,1,10,06,31,103,24,12,54,290,24,15,18,207,19,17,22,045,25,1*68
$GPGSV,3,2,10,19,52,055,17,22,19,073,22,24,81,264,29,25,15,274,20,1*65
$GPGSV,3,3,10,32,08,325,31,36,42,192,35,1*65
$GPGSV,2,1,05,06,31,103,21,12,54,290,31,17,22,045,15,24,81,264,21,6*64

$GPGSV,2,2,05,32,08,325,29,6*50
$GPGSV,1,1,03,11,18,145,,13,08,176,,49,36,218,,0*56
$GLGSV,2,1,08,71,25,262,15,72,21,314,28,73,55,337,37,74,19,301,12,1*77
$GLGSV,2,2,08,80,42,073,32,81,07,022,25,82,44,054,25,83,50,124,13,1*75
$GLGSV,2,1,07,71,25,262,18,72,21,314,33,73,55,337,21,80,42,073,23,3*7B
$GLGSV,2,2,07,81,07,022,20,82,44,054,27,83,50,124,27,3*43

$GLGSV,1,1,02,70,06,218,,84,06,177,,0*7A
$GAGSV,1,1,01,14,39,059,32,7*40
$GBGSV,2,1,06,10,36,058,26,11,57,100,33,12,21,042,07,20,09,312,33,1*77

$GBGSV,2,2,06,23,69,326,11,25,49,097,35,1*7B
$GBGSV,1,1,03,10,36,058,18,11,57,100,35,12,21,042,29,B*3E
$GQGSV,1,1,00,0*64
$GNGLL,4044.68533,N,03136.83457,E,151345.00,A,D*70

$GNRMC,151346.00,A,4044.68526,N,03136.83458,E,0.023,,181124,,,D,V*15

$GNVTG,,T,,M,0.023,N,0.043,K,D*3E

$GNGGA,151346.00,4044.68526,N,03136.83458,E,2,12,0.91,748.5,M,36.4,M,,0123*4F
$GNGSA,A,3,06,12,17,22,24,19,25,,,,,,1.51,0.91,1.20,1*05
$GNGSA,A,3,74,82,72,80,83,73,71,,,,,,1.51,0.91,1.20,2*01
$GNGSA,A,3,,,,,,,,,,,,,1.51,0.91,1.20,3*0D
$GNGSA,A,3,10,12,11,25,,,,,,,,,1.51,0.91,1.20,4*0F
$GNGSA,A,3,,,,,,,,,,,,,1.51,0.91,1.20,5*0B
$GPGSV,3,1,10,06,31,103,25,12,54,290,24,15,18,207,20,17,22,045,25,1*63
$GPGSV,3,2,10,19,52,055,17,22,19,073,22,24,81,264,29,25,15,274,20,1*65

$GPGSV,3,3,10,32,08,325,31,36,42,192,35,1*65
$GPGSV,2,1,05,06,31,103,21,12,54,290,31,17,22,045,15,24,81,264,21,6*64
$GPGSV,2,2,05,32,08,325,29,6*50
$GPGSV,1,1,03,11,18,145,,13,08,176,,49,36,218,,0*56
$GLGSV,2,1,08,71,25,262,17,72,21,314,28,73,55,337,37,74,19,301,10,1*77

$GLGSV,2,2,08,80,42,073,32,81,07,022,25,82,44,054,25,83,51,123,11,1*71
$GLGSV,2,1,07,71,25,262,18,72,21,314,33,73,55,337,21,80,42,073,23,3*7B
$GLGSV,2,2,07,81,07,022,21,82,44,054,27,83,51,123,27,3*44
$GLGSV,1,1,02,70,06,218,,84,06,177,,0*7A
$GAGSV,1,1,01,14,39,059,33,7*41
$GBGSV,2,1,05,10,36,058,26,11,57,100,33,20,09,312,33,23,69,326,09,1*75
$GBGSV,2,2,05,25,49,097,35,1*41
$GBGSV,1,1,03,10,36,058,18,11,57,100,35,12,21,042,29,B*3E
$GQGSV,1,1,00,0*64
$GNGLL,4044.68526,N,03136.83458,E,151346.00,A,D*78

$GNRMC,151347.00,A,4044.68521,N,03136.83459,E,0.040,,181124,,,D,V*17

$GNVTG,,T,,M,0.040,N,0.074,K,D*3F

$GNGGA,151347.00,4044.68521,N,03136.83459,E,2,12,0.91,748.2,M,36.4,M,,0123*4F
$GNGSA,A,3,06,12,17,22,24,19,25,,,,,,1.51,0.91,1.20,1*05
$GNGSA,A,3,74,82,72,80,83,73,71,,,,,,1.51,0.91,1.20,2*01
$GNGSA,A,3,,,,,,,,,,,,,1.51,0.91,1.20,3*0D
$GNGSA,A,3,10,12,11,25,,,,,,,,,1.51,0.91,1.20,4*0F
$GNGSA,A,3,,,,,,,,,,,,,1.51,0.91,1.20,5*0B

$GPGSV,3,1,10,06,31,103,25,12,54,290,23,15,18,207,19,17,22,045,25,1*6E
$GPGSV,3,2,10,19,52,055,18,22,19,073,22,24,81,264,29,25,15,274,19,1*60
$GPGSV,3,3,10,32,08,325,31,36,42,192,35,1*65
$GPGSV,2,1,05,06,31,103,21,12,54,290,31,17,22,045,15,24,81,264,21,6*64
$GPGSV,2,2,05,32,08,325,29,6*50

$GPGSV,1,1,03,11,18,145,,13,08,176,,49,36,218,,0*56
$GLGSV,2,1,08,71,25,262,17,72,21,314,28,73,55,337,37,74,19,301,08,1*7E
$GLGSV,2,2,08,80,42,073,33,81,07,022,25,82,44,054,26,83,51,123,12,1*70

$GLGSV,2,1,07,71,25,262,18,72,21,314,33,73,55,337,21,80,42,073,22,3*7A

$GLGSV,2,2,07,81,07,022,21,82,44,054,27,83,51,123,27,3*44
$GLGSV,1,1,02,70,06,218,,84,06,177,,0*7A
$GAGSV,1,1,01,14,39,059,33,7*41

$GBGSV,2,1,05,10,36,058,26,11,57,100,33,20,09,312,33,23,69,326,09,1*75

$GBGSV,2,2,05,25,49,097,35,1*41
$GBGSV,1,1,03,10,36,058,18,11,57,100,35,12,21,042,29,B*3E
$GQGSV,1,1,00,0*64
$GNGLL,4044.68521,N,03136.83459,E,151347.00,A,D*7F

$GNRMC,151348.00,A,4044.68521,N,03136.83462,E,0.067,,181124,,,D,V*15
$GNVTG,,T,,M,0.067,N,0.124,K,D*3E

$GNGGA,151348.00,4044.68521,N,03136.83462,E,2,12,0.90,748.2,M,36.4,M,,0123*49

$GNGSA,A,3,06,12,17,22,24,19,25,,,,,,1.48,0.90,1.18,1*07
$GNGSA,A,3,74,82,72,80,83,73,71,,,,,,1.48,0.90,1.18,2*03
$GNGSA,A,3,,,,,,,,,,,,,1.48,0.90,1.18,3*0F
$GNGSA,A,3,10,12,11,25,,,,,,,,,1.48,0.90,1.18,4*0D
$GNGSA,A,3,,,,,,,,,,,,,1.48,0.90,1.18,5*09

$GPGSV,3,1,10,06,31,103,25,12,54,290,23,15,18,207,19,17,22,045,24,1*6F
$GPGSV,3,2,10,19,52,055,16,22,19,073,21,24,81,264,29,25,15,274,19,1*6D
$GPGSV,3,3,10,32,08,325,30,36,42,192,35,1*64
$GPGSV,2,1,05,06,31,103,21,12,54,290,31,17,22,045,15,24,81,264,21,6*64
$GPGSV,2,2,05,32,08,325,29,6*50

$GPGSV,1,1,03,11,18,145,,13,08,176,,49,36,218,,0*56
$GLGSV,2,1,08,71,25,262,17,72,21,314,27,73,55,337,36,74,19,301,09,1*71
$GLGSV,2,2,08,80,42,073,34,81,07,022,26,82,44,054,25,83,51,123,12,1*77
$GLGSV,2,1,07,71,25,262,18,72,21,314,33,73,55,337,21,80,42,073,22,3*7A
$GLGSV,2,2,07,81,07,022,21,82,44,054,27,83,51,123,27,3*44
$GLGSV,1,1,02,70,06,218,,84,06,177,,0*7A
$GAGSV,1,1,01,14,39,059,32,7*40

$GBGSV,2,1,05,10,36,058,26,11,57,100,34,20,09,312,33,23,69,326,09,1*72
$GBGSV,2,2,05,25,49,097,35,1*41
$GBGSV,1,1,03,10,36,058,18,11,57,100,35,12,21,042,29,B*3E
$GQGSV,1,1,00,0*64

$GNGLL,4044.68521,N,03136.83462,E,151348.00,A,D*78

$GNRMC,151349.00,A,4044.68516,N,03136.83464,E,0.038,,181124,,,D,V*1C
$GNVTG,,T,,M,0.038,N,0.070,K,D*34

$GNGGA,151349.00,4044.68516,N,03136.83464,E,2,12,0.88,748.0,M,36.4,M,,0123*41

$GNGSA,A,3,06,12,17,22,24,19,25,,,,,,1.40,0.88,1.08,1*07
$GNGSA,A,3,74,82,72,80,83,73,71,,,,,,1.40,0.88,1.08,2*03
$GNGSA,A,3,,,,,,,,,,,,,1.40,0.88,1.08,3*0F
$GNGSA,A,3,23,10,12,11,25,,,,,,,,1.40,0.88,1.08,4*0C
$GNGSA,A,3,,,,,,,,,,,,,1.40,0.88,1.08,5*09
$GPGSV,3,1,10,06,31,103,25,12,54,290,23,15,18,207,19,17,22,045,24,1*6F

$GPGSV,3,2,10,19,52,055,15,22,19,073,21,24,81,264,29,25,15,274,19,1*6E
$GPGSV,3,3,10,32,08,325,30,36,42,192,35,1*64
$GPGSV,2,1,05,06,31,103,21,12,54,290,31,17,22,045,14,24,81,264,21,6*65
$GPGSV,2,2,05,32,08,325,29,6*50
$GPGSV,1,1,03,11,18,145,,13,08,176,,49,36,218,,0*56

$GLGSV,2,1,08,71,25,262,16,72,21,314,27,73,55,337,36,74,19,301,13,1*7B
$GLGSV,2,2,08,80,42,073,34,81,07,022,26,82,44,054,26,83,51,123,12,1*74
$GLGSV,2,1,07,71,25,262,18,72,21,314,33,73,55,337,22,80,42,073,22,3*79
$GLGSV,2,2,07,81,07,022,21,82,44,054,27,83,51,123,27,3*44

$GLGSV,1,1,02,70,06,218,,84,06,177,,0*7A
$GAGSV,1,1,01,14,39,059,32,7*40
$GBGSV,2,1,06,10,36,058,26,11,57,100,34,12,21,042,14,20,09,312,33,1*72
$GBGSV,2,2,06,23,69,326,08,25,49,097,35,1*73

$GBGSV,1,1,03,10,36,058,18,11,57,100,35,12,21,042,29,B*3E
$GQGSV,1,1,00,0*64
$GNGLL,4044.68516,N,03136.83464,E,151349.00,A,D*7B

$GNRMC,151350.00,A,4044.68513,N,03136.83465,E,0.047,,181124,,,D,V*18

$GNVTG,,T,,M,0.047,N,0.088,K,D*3B

$GNGGA,151350.00,4044.68513,N,03136.83465,E,2,12,0.88,747.9,M,36.4,M,,0123*4B
$GNGSA,A,3,06,12,17,22,24,19,25,,,,,,1.40,0.88,1.08,1*07
$GNGSA,A,3,74,82,72,80,83,73,71,,,,,,1.40,0.88,1.08,2*03
$GNGSA,A,3,,,,,,,,,,,,,1.40,0.88,1.08,3*0F

$GNGSA,A,3,23,10,12,11,25,,,,,,,,1.40,0.88,1.08,4*0C
$GNGSA,A,3,,,,,,,,,,,,,1.40,0.88,1.08,5*09
$GPGSV,3,1,10,06,31,103,25,12,54,290,23,15,18,207,19,17,22,045,23,1*68
$GPGSV,3,2,10,19,52,055,14,22,19,073,21,24,81,264,29,25,15,274,19,1*6F

$GPGSV,3,3,10,32,08,325,29,36,42,192,35,1*6C
$GPGSV,2,1,05,06,31,103,20,12,54,290,31,17,22,045,15,24,81,264,21,6*65
$GPGSV,2,2,05,32,08,325,29,6*50
$GPGSV,1,1,03,11,18,145,,13,08,176,,49,36,218,,0*56

$GLGSV,2,1,08,71,25,262,16,72,21,314,27,73,55,337,36,74,19,301,08,1*71

$GLGSV,2,2,08,80,42,073,33,81,07,022,25,82,44,054,25,83,51,123,12,1*73
$GLGSV,2,1,07,71,25,262,18,72,21,314,33,73,55,337,22,80,42,073,22,3*79
$GLGSV,2,2,07,81,07,022,20,82,44,054,27,83,51,123,27,3*45
$GLGSV,1,1,02,70,06,218,,84,06,177,,0*7A
$GAGSV,1,1,01,14,39,059,32,7*40

$GBGSV,2,1,06,10,36,058,26,11,57,100,34,12,21,042,15,20,09,312,33,1*73

$GBGSV,2,2,06,23,69,326,07,25,49,097,35,1*7C
$GBGSV,1,1,03,10,36,058,18,11,57,100,35,12,21,042,29,B*3E
$GQGSV,1,1,00,0*64
$GNGLL,4044.68513,N,03136.83465,E,151350.00,A,D*77

******************************************************************************************
                                   Port Baðlantý Kuruldu!!
******************************************************************************************
$GNRMC,172922.00,A,4044.68782,N,03136.83498,E,0.045,,181124,,,D,V*1C
$GNVTG,,T,,M,0.045,N,0.083,K,D*32
$GNGGA,172922.00,4044.68782,N,03136.83498,E,2,12,0.59,752.1,M,36.4,M,,0123*4D
$GNGSA,A,3,32,06,12,11,29,24,20,25,28,,,,0.99,0.59,0.79,1*05
$GNGSA,A,3,83,74,84,73,75,,,,,,,,0.99,0.59,0.79,2*02
$GNGSA,A,3,27,21,15,13,04,,,,,,,,0.99,0.59,0.79,3*05
$GNGSA,A,3,23,28,37,38,43,11,13,,,,,,0.99,0.59,0.79,4*07
$GNGSA,A,3,,,,,,,,,,,,,0.99,0.59,0.79,5*07
$GPGSV,3,1,10,06,19,040,09,11,50,074,30,12,62,081,18,20,17,106,23,1*64
$GPGSV,3,2,10,24,25,175,15,25,65,321,21,28,25,314,34,29,46,253,31,1*66
$GPGSV,3,3,10,32,11,271,29,36,42,192,34,1*65
$GPGSV,2,1,07,06,19,040,25,11,50,074,25,12,62,081,15,25,65,321,25,6*62
$GPGSV,2,2,07,28,25,314,33,29,46,253,20,32,11,271,18,6*5C
$GPGSV,1,1,02,05,03,136,,49,36,218,,0*66
$GLGSV,2,1,06,73,47,123,29,74,76,013,20,75,26,322,34,83,26,032,13,1*7D
$GLGSV,2,2,06,84,83,158,26,85,29,208,17,1*7B
$GLGSV,2,1,06,65,01,304,08,73,47,123,26,75,26,322,19,83,26,032,20,3*70
$GLGSV,2,2,06,84,83,158,32,85,29,208,22,3*7A
$GLGSV,1,1,01,66,03,349,,0*45
$GAGSV,2,1,05,04,10,310,32,13,54,149,29,15,44,059,21,21,65,323,26,2*7F
$GAGSV,2,2,05,27,51,091,22,2*4A
$GAGSV,2,1,07,04,10,310,32,13,54,149,26,15,44,059,24,21,65,323,24,7*70
$GAGSV,2,2,07,23,,,26,27,51,091,37,34,02,030,07,7*7D
$GAGSV,2,1,05,06,02,332,,19,15,254,,26,13,191,,29,04,213,,0*7B
$GAGSV,2,2,05,30,03,107,,0*47
$GBGSV,2,1,07,11,23,045,18,13,23,102,25,23,54,143,32,28,66,212,33,1*70
$GBGSV,2,2,07,37,68,301,27,38,23,079,18,43,45,051,22,1*43
$GBGSV,2,1,05,07,12,075,17,08,24,091,23,11,23,045,18,13,23,102,28,B*07
$GBGSV,2,2,05,28,66,212,07,B*3C
$GBGSV,3,1,10,02,18,118,,03,00,097,,10,24,073,,25,04,137,,0*7F
$GBGSV,3,2,10,27,20,222,,34,01,047,,40,02,067,,46,14,313,,0*76
$GBGSV,3,3,10,60,22,120,,61,00,097,,0*7A
$GQGSV,1,1,00,0*64
$GNGLL,4044.68782,N,03136.83498,E,172922.00,A,D*71
$GNRMC,172923.00,A,4044.68784,N,03136.83500,E,0.076,,181124,,,D,V*1B
$GNVTG,,T,,M,0.076,N,0.141,K,D*3D
$GNGGA,172923.00,4044.68784,N,03136.83500,E,2,12,0.59,752.2,M,36.4,M,,0123*49
$GNGSA,A,3,32,06,12,11,29,24,20,25,28,,,,0.99,0.59,0.79,1*05
$GNGSA,A,3,83,74,84,73,75,,,,,,,,0.99,0.59,0.79,2*02
$GNGSA,A,3,27,21,15,13,04,,,,,,,,0.99,0.59,0.79,3*05
$GNGSA,A,3,23,28,37,38,43,11,13,,,,,,0.99,0.59,0.79,4*07
$GNGSA,A,3,,,,,,,,,,,,,0.99,0.59,0.79,5*07
$GPGSV,3,1,10,06,19,040,07,11,50,074,30,12,62,081,18,20,17,106,22,1*6B
$GPGSV,3,2,10,24,25,175,15,25,65,321,22,28,25,314,34,29,46,253,31,1*65
$GPGSV,3,3,10,32,11,271,29,36,42,192,34,1*65
$GPGSV,2,1,07,06,19,040,25,11,50,074,25,12,62,081,15,25,65,321,26,6*61
$GPGSV,2,2,07,28,25,314,33,29,46,253,20,32,11,271,18,6*5C
$GPGSV,1,1,02,05,03,136,,49,36,218,,0*66
$GLGSV,2,1,06,73,47,123,29,74,76,013,21,75,26,322,34,83,26,032,17,1*78
$GLGSV,2,2,06,84,83,158,26,85,29,208,18,1*74
$GLGSV,2,1,06,65,01,304,09,73,47,123,27,75,26,322,19,83,26,032,20,3*70
$GLGSV,2,2,06,84,83,158,32,85,29,208,22,3*7A
$GLGSV,1,1,01,66,03,349,,0*45
$GAGSV,2,1,05,04,10,310,32,13,54,149,29,15,44,059,22,21,65,323,26,2*7C
$GAGSV,2,2,05,27,51,091,22,2*4A
$GAGSV,2,1,07,04,10,310,32,13,54,149,26,15,44,059,24,21,65,323,24,7*70
$GAGSV,2,2,07,23,,,26,27,51,091,37,34,02,030,09,7*73
$GAGSV,2,1,05,06,02,332,,19,15,254,,26,13,191,,29,04,213,,0*7B
$GAGSV,2,2,05,30,03,107,,0*47
$GBGSV,2,1,07,11,23,045,19,13,23,102,25,23,54,143,32,28,66,212,33,1*71
$GBGSV,2,2,07,37,68,301,27,38,23,079,19,43,45,051,22,1*42
$GBGSV,2,1,05,07,12,075,16,08,24,091,24,11,23,045,17,13,23,102,28,B*0E
$GBGSV,2,2,05,28,66,212,07,B*3C
$GBGSV,3,1,10,02,18,118,,03,00,097,,10,24,073,,25,04,137,,0*7F
$GBGSV,3,2,10,27,21,222,,34,01,047,,40,02,067,,46,14,313,,0*77
$GBGSV,3,3,10,60,22,120,,61,00,097,,0*7A
$GQGSV,1,1,00,0*64
$GNGLL,4044.68784,N,03136.83500,E,172923.00,A,D*76
$GNRMC,172924.00,A,4044.68785,N,03136.83501,E,0.023,,181124,,,D,V*1C
$GNVTG,,T,,M,0.023,N,0.042,K,D*3F
$GNGGA,172924.00,4044.68785,N,03136.83501,E,2,12,0.59,752.2,M,36.4,M,,0123*4E
$GNGSA,A,3,32,06,12,11,29,24,20,25,28,,,,0.99,0.59,0.79,1*05
$GNGSA,A,3,83,74,84,73,75,,,,,,,,0.99,0.59,0.79,2*02
$GNGSA,A,3,27,21,15,13,04,,,,,,,,0.99,0.59,0.79,3*05
$GNGSA,A,3,23,28,37,38,43,11,13,,,,,,0.99,0.59,0.79,4*07
$GNGSA,A,3,,,,,,,,,,,,,0.99,0.59,0.79,5*07
$GPGSV,3,1,10,06,19,040,09,11,50,074,30,12,62,081,18,20,17,106,22,1*65
$GPGSV,3,2,10,24,25,175,15,25,65,321,22,28,25,314,34,29,46,253,31,1*65
$GPGSV,3,3,10,32,11,271,29,36,42,192,34,1*65
$GPGSV,2,1,07,06,19,040,25,11,50,074,25,12,62,081,16,25,65,321,26,6*62
$GPGSV,2,2,07,28,25,314,33,29,46,253,20,32,11,271,18,6*5C
$GPGSV,1,1,02,05,03,136,,49,36,218,,0*66
$GLGSV,2,1,06,73,47,123,28,74,76,013,20,75,26,322,34,83,26,032,15,1*7A
$GLGSV,2,2,06,84,83,158,26,85,29,208,18,1*74
$GLGSV,2,1,06,65,01,304,09,73,47,123,27,75,26,322,19,83,26,032,20,3*70
$GLGSV,2,2,06,84,83,158,32,85,29,208,21,3*79
$GLGSV,1,1,01,66,03,349,,0*45
$GAGSV,2,1,05,04,10,310,32,13,54,149,30,15,44,059,22,21,65,323,26,2*74
$GAGSV,2,2,05,27,51,091,22,2*4A
$GAGSV,2,1,07,04,10,310,31,13,54,149,25,15,44,059,24,21,65,323,24,7*70
$GAGSV,2,2,07,23,,,26,27,51,091,37,34,02,030,08,7*72
$GAGSV,2,1,05,06,02,332,,19,15,254,,26,13,191,,29,04,213,,0*7B
$GAGSV,2,2,05,30,03,107,,0*47
$GBGSV,2,1,07,11,23,045,18,13,23,102,25,23,54,143,32,28,67,213,33,1*70
$GBGSV,2,2,07,37,68,301,27,38,23,079,18,43,45,051,22,1*43
$GBGSV,2,1,05,07,12,075,16,08,24,091,24,11,23,045,18,13,23,102,28,B*01
$GBGSV,2,2,05,28,67,213,08,B*33
$GBGSV,3,1,10,02,18,118,,03,00,097,,10,24,073,,25,04,137,,0*7F
$GBGSV,3,2,10,27,21,222,,34,01,047,,40,02,067,,46,14,313,,0*77
$GBGSV,3,3,10,60,22,120,,61,00,097,,0*7A
$GQGSV,1,1,00,0*64
$GNGLL,4044.68785,N,03136.83501,E,172924.00,A,D*71
$GNRMC,172925.00,A,4044.68786,N,03136.83500,E,0.047,,181124,,,D,V*1D
$GNVTG,,T,,M,0.047,N,0.088,K,D*3B
$GNGGA,172925.00,4044.68786,N,03136.83500,E,2,12,0.59,752.2,M,36.4,M,,0123*4D
$GNGSA,A,3,32,06,12,11,29,24,20,25,28,,,,0.99,0.59,0.79,1*05
$GNGSA,A,3,83,74,84,73,75,,,,,,,,0.99,0.59,0.79,2*02
$GNGSA,A,3,27,21,15,13,04,,,,,,,,0.99,0.59,0.79,3*05
$GNGSA,A,3,23,28,37,38,43,11,13,,,,,,0.99,0.59,0.79,4*07
$GNGSA,A,3,,,,,,,,,,,,,0.99,0.59,0.79,5*07
$GPGSV,3,1,10,06,19,040,11,11,50,074,31,12,62,081,20,20,17,106,23,1*67
$GPGSV,3,2,10,24,25,175,16,25,65,321,23,28,25,314,35,29,46,253,32,1*65
$GPGSV,3,3,10,32,11,271,29,36,42,192,34,1*65
$GPGSV,2,1,07,06,19,040,25,11,50,074,25,12,62,081,17,25,65,321,26,6*63
$GPGSV,2,2,07,28,25,314,33,29,46,253,20,32,11,271,18,6*5C
$GPGSV,1,1,02,05,03,136,,49,36,218,,0*66
$GLGSV,2,1,06,73,47,123,29,74,76,013,20,75,26,322,34,83,26,032,17,1*79
$GLGSV,2,2,06,84,83,158,26,85,29,208,19,1*75
$GLGSV,2,1,06,65,01,304,08,73,47,123,26,75,26,322,18,83,26,032,21,3*70
$GLGSV,2,2,06,84,83,158,32,85,29,208,21,3*79
$GLGSV,1,1,01,66,03,349,,0*45
$GAGSV,2,1,05,04,10,310,32,13,54,149,30,15,44,059,21,21,65,323,26,2*77
$GAGSV,2,2,05,27,51,091,22,2*4A
$GAGSV,2,1,07,04,10,310,32,13,54,149,25,15,44,059,24,21,65,323,24,7*73
$GAGSV,2,2,07,23,,,27,27,51,091,37,34,02,030,07,7*7C
$GAGSV,2,1,05,06,02,332,,19,15,254,,26,13,191,,29,04,213,,0*7B
$GAGSV,2,2,05,30,03,107,,0*47
$GBGSV,2,1,07,11,23,045,19,13,23,102,25,23,54,143,31,28,67,213,33,1*72
$GBGSV,2,2,07,37,68,301,28,38,23,079,18,43,45,051,22,1*4C
$GBGSV,2,1,05,07,12,075,15,08,24,091,24,11,23,045,18,13,23,102,29,B*03
$GBGSV,2,2,05,28,67,213,08,B*33
$GBGSV,3,1,10,02,18,118,,03,00,097,,10,24,073,,25,04,137,,0*7F
$GBGSV,3,2,10,27,21,222,,34,01,047,,40,02,067,,46,14,313,,0*77
$GBGSV,3,3,10,60,22,120,,61,00,097,,0*7A
$GQGSV,1,1,00,0*64
$GNGLL,4044.68786,N,03136.83500,E,172925.00,A,D*72
$GNRMC,172926.00,A,4044.68787,N,03136.83501,E,0.036,,181124,,,D,V*18
$GNVTG,,T,,M,0.036,N,0.067,K,D*3C
$GNGGA,172926.00,4044.68787,N,03136.83501,E,2,12,0.59,752.2,M,36.4,M,,0123*4E
$GNGSA,A,3,32,06,12,11,29,24,20,25,28,,,,0.99,0.59,0.79,1*05
$GNGSA,A,3,83,74,84,73,75,,,,,,,,0.99,0.59,0.79,2*02
$GNGSA,A,3,27,21,15,13,04,,,,,,,,0.99,0.59,0.79,3*05
$GNGSA,A,3,23,28,37,38,43,11,13,,,,,,0.99,0.59,0.79,4*07
$GNGSA,A,3,,,,,,,,,,,,,0.99,0.59,0.79,5*07
$GPGSV,3,1,10,06,19,040,11,11,50,074,31,12,62,081,20,20,17,106,22,1*66
$GPGSV,3,2,10,24,25,175,17,25,65,321,23,28,25,314,35,29,46,253,32,1*64
$GPGSV,3,3,10,32,11,271,29,36,42,192,34,1*65
$GPGSV,2,1,07,06,19,040,24,11,50,074,26,12,62,081,16,25,65,321,25,6*63
$GPGSV,2,2,07,28,25,314,33,29,46,253,20,32,11,271,18,6*5C
$GPGSV,1,1,02,05,03,136,,49,36,218,,0*66
$GLGSV,2,1,06,73,47,123,29,74,76,013,20,75,26,322,34,83,26,032,12,1*7C
$GLGSV,2,2,06,84,83,158,26,85,29,208,19,1*75
$GLGSV,2,1,06,65,01,304,09,73,47,123,26,75,26,322,18,83,26,032,21,3*71
$GLGSV,2,2,06,84,83,158,32,85,29,208,21,3*79
$GLGSV,1,1,01,66,03,349,,0*45
$GAGSV,2,1,05,04,10,310,32,13,54,149,30,15,44,059,21,21,65,323,26,2*77
$GAGSV,2,2,05,27,51,091,22,2*4A
$GAGSV,2,1,07,04,10,310,32,13,54,149,25,15,44,059,25,21,65,323,24,7*72
$GAGSV,2,2,07,23,,,26,27,51,091,37,34,02,030,10,7*7B
$GAGSV,2,1,05,06,02,332,,19,15,254,,26,13,191,,29,04,213,,0*7B
$GAGSV,2,2,05,30,03,107,,0*47
$GBGSV,2,1,07,11,23,045,19,13,23,102,26,23,54,143,32,28,67,213,33,1*72
$GBGSV,2,2,07,37,68,301,28,38,23,079,18,43,45,051,22,1*4C
$GBGSV,1,1,04,07,12,075,15,08,24,091,24,11,23,045,17,13,23,102,29,B*0E
$GBGSV,3,1,10,02,18,118,,03,00,097,,10,24,073,,25,04,137,,0*7F
$GBGSV,3,2,10,27,21,222,,34,01,047,,40,02,067,,46,14,313,,0*77
$GBGSV,3,3,10,60,22,120,,61,00,097,,0*7A
$GQGSV,1,1,00,0*64
$GNGLL,4044.68787,N,03136.83501,E,172926.00,A,D*71
$GNRMC,172927.00,A,4044.68788,N,03136.83501,E,0.021,,181124,,,D,V*10
$GNVTG,,T,,M,0.021,N,0.039,K,D*31
$GNGGA,172927.00,4044.68788,N,03136.83501,E,2,12,0.59,752.2,M,36.4,M,,0123*40
$GNGSA,A,3,32,06,12,11,29,24,20,25,28,,,,0.99,0.59,0.79,1*05
$GNGSA,A,3,83,74,84,73,75,,,,,,,,0.99,0.59,0.79,2*02
$GNGSA,A,3,27,21,15,13,04,,,,,,,,0.99,0.59,0.79,3*05
$GNGSA,A,3,23,28,37,38,43,11,13,,,,,,0.99,0.59,0.79,4*07
$GNGSA,A,3,,,,,,,,,,,,,0.99,0.59,0.79,5*07
$GPGSV,3,1,10,06,19,040,08,11,50,074,31,12,62,081,21,20,17,106,22,1*6F
$GPGSV,3,2,10,24,25,175,17,25,65,321,22,28,25,314,35,29,46,253,31,1*66
$GPGSV,3,3,10,32,11,271,29,36,42,192,34,1*65
$GPGSV,2,1,07,06,19,040,25,11,50,074,26,12,62,081,16,25,65,321,25,6*62
$GPGSV,2,2,07,28,25,314,33,29,46,253,20,32,11,271,18,6*5C
$GPGSV,1,1,02,05,03,136,,49,36,218,,0*66
$GLGSV,2,1,06,73,47,123,29,74,76,013,20,75,26,322,34,83,26,032,15,1*7B
$GLGSV,2,2,06,84,83,158,26,85,29,208,19,1*75
$GLGSV,2,1,06,65,01,304,08,73,47,123,26,75,26,322,17,83,26,032,21,3*7F
$GLGSV,2,2,06,84,83,158,32,85,29,208,21,3*79
$GLGSV,1,1,01,66,03,349,,0*45
$GAGSV,2,1,05,04,10,310,32,13,54,149,30,15,44,059,21,21,65,323,26,2*77
$GAGSV,2,2,05,27,51,091,22,2*4A
$GAGSV,2,1,07,04,10,310,32,13,54,149,25,15,44,059,24,21,65,323,24,7*73
$GAGSV,2,2,07,23,,,26,27,51,091,37,34,02,030,10,7*7B
$GAGSV,2,1,05,06,02,332,,19,15,254,,26,13,191,,29,04,213,,0*7B
$GAGSV,2,2,05,30,03,107,,0*47
$GBGSV,2,1,07,11,23,045,19,13,23,102,25,23,54,143,32,28,67,213,33,1*71
$GBGSV,2,2,07,37,68,301,28,38,23,079,19,43,45,051,23,1*4C
$GBGSV,1,1,04,07,12,075,15,08,24,091,23,11,23,045,18,13,23,102,28,B*07
$GBGSV,3,1,10,02,18,118,,03,00,097,,10,24,073,,25,04,137,,0*7F
$GBGSV,3,2,10,27,21,222,,34,01,047,,40,02,067,,46,14,313,,0*77
$GBGSV,3,3,10,60,22,120,,61,00,097,,0*7A
$GQGSV,1,1,00,0*64
$GNGLL,4044.68788,N,03136.83501,E,172927.00,A,D*7F
******************************************************************************************
                                   Port Baðlantý Kuruldu!!
******************************************************************************************
$GNRMC,173027.00,A,4044.68751,N,03136.83505,E,0.014,,181124,,,D,V*1E
$GNVTG,,T,,M,0.014,N,0.025,K,D*3A
$GNGGA,173027.00,4044.68751,N,03136.83505,E,2,12,0.59,751.3,M,36.4,M,,0123*4A
$GNGSA,A,3,32,06,12,11,29,24,20,25,28,,,,0.99,0.59,0.79,1*05
$GNGSA,A,3,83,74,84,73,75,,,,,,,,0.99,0.59,0.79,2*02
$GNGSA,A,3,27,21,15,13,04,,,,,,,,0.99,0.59,0.79,3*05
$GNGSA,A,3,23,28,37,38,43,11,13,,,,,,0.99,0.59,0.79,4*07
$GNGSA,A,3,,,,,,,,,,,,,0.99,0.59,0.79,5*07
$GPGSV,3,1,10,06,18,040,20,11,50,073,29,12,61,083,31,20,17,106,22,1*6A
$GPGSV,3,2,10,24,25,175,11,25,65,321,11,28,25,314,33,29,46,253,28,1*6E
$GPGSV,3,3,10,32,11,271,29,36,42,192,34,1*65
$GPGSV,2,1,08,06,18,040,24,11,50,073,27,12,61,083,19,24,25,175,14,6*61
$GPGSV,2,2,08,25,65,321,15,28,25,314,34,29,46,253,21,32,11,271,18,6*65
$GPGSV,1,1,02,05,04,135,,49,36,218,,0*62
$GLGSV,2,1,06,73,46,125,28,74,77,018,14,75,27,322,32,83,25,032,22,1*70
$GLGSV,2,2,06,84,84,151,24,85,30,208,22,1*79
$GLGSV,2,1,06,65,00,303,10,73,46,125,26,75,27,322,20,83,25,032,19,3*7A
$GLGSV,2,2,06,84,84,151,31,85,30,208,23,3*7E
$GLGSV,1,1,01,66,03,348,,0*44
$GAGSV,2,1,05,04,10,310,30,13,54,149,28,15,44,059,24,21,65,323,26,2*79
$GAGSV,2,2,05,27,51,091,25,2*4D
$GAGSV,2,1,07,04,10,310,32,13,54,149,18,15,44,059,26,21,65,323,26,7*7D
$GAGSV,2,2,07,23,,,27,27,51,091,37,34,02,030,05,7*7E
$GAGSV,2,1,05,06,02,332,,19,15,254,,26,13,191,,29,04,213,,0*7B
$GAGSV,2,2,05,30,03,107,,0*47
$GBGSV,2,1,07,11,23,045,16,13,23,102,25,23,54,143,32,28,67,213,34,1*79
$GBGSV,2,2,07,37,69,300,21,38,24,078,19,43,44,050,19,1*4A
$GBGSV,1,1,04,07,12,075,19,08,24,091,23,11,23,045,17,13,23,102,28,B*04
$GBGSV,3,1,10,02,18,118,,03,00,097,,10,24,073,,25,04,137,,0*7F
$GBGSV,3,2,10,27,21,222,,34,00,047,,40,02,067,,46,15,313,,0*77
$GBGSV,3,3,10,60,22,120,,61,00,097,,0*7A
$GQGSV,1,1,00,0*64
$GNGLL,4044.68751,N,03136.83505,E,173027.00,A,D*77
$GNRMC,173028.00,A,4044.68751,N,03136.83504,E,0.012,,181124,,,D,V*16
$GNVTG,,T,,M,0.012,N,0.022,K,D*3B
$GNGGA,173028.00,4044.68751,N,03136.83504,E,2,12,0.59,751.4,M,36.4,M,,0123*43
$GNGSA,A,3,32,06,12,11,29,24,20,25,28,,,,0.99,0.59,0.79,1*05
$GNGSA,A,3,83,74,84,73,75,,,,,,,,0.99,0.59,0.79,2*02
$GNGSA,A,3,27,21,15,13,04,,,,,,,,0.99,0.59,0.79,3*05
$GNGSA,A,3,23,28,37,38,43,11,13,,,,,,0.99,0.59,0.79,4*07
$GNGSA,A,3,,,,,,,,,,,,,0.99,0.59,0.79,5*07
$GPGSV,3,1,10,06,18,040,20,11,50,073,29,12,61,083,31,20,17,106,22,1*6A
$GPGSV,3,2,10,24,25,175,10,25,65,321,12,28,25,314,33,29,46,253,29,1*6D
$GPGSV,3,3,10,32,11,271,29,36,42,192,34,1*65
$GPGSV,2,1,08,06,18,040,25,11,50,073,27,12,61,083,20,24,25,175,14,6*6A
$GPGSV,2,2,08,25,65,321,14,28,25,314,34,29,46,253,21,32,11,271,18,6*64
$GPGSV,1,1,02,05,04,135,,49,36,218,,0*62
$GLGSV,2,1,06,73,46,125,28,74,77,018,16,75,27,322,32,83,25,032,22,1*72
$GLGSV,2,2,06,84,84,151,24,85,30,208,22,1*79
$GLGSV,2,1,06,65,00,303,09,73,46,125,26,75,27,322,19,83,25,032,19,3*78
$GLGSV,2,2,06,84,84,151,31,85,30,208,22,3*7F
$GLGSV,1,1,01,66,03,348,,0*44
$GAGSV,2,1,05,04,10,310,30,13,54,149,28,15,44,059,24,21,65,323,26,2*79
$GAGSV,2,2,05,27,51,091,25,2*4D
$GAGSV,2,1,07,04,10,310,32,13,54,149,18,15,44,059,26,21,65,323,26,7*7D
$GAGSV,2,2,07,23,,,27,27,51,091,37,34,02,030,09,7*72
$GAGSV,2,1,05,06,02,332,,19,15,254,,26,13,191,,29,04,213,,0*7B
$GAGSV,2,2,05,30,03,107,,0*47
$GBGSV,2,1,07,11,23,045,17,13,23,102,25,23,54,143,32,28,67,213,34,1*78
$GBGSV,2,2,07,37,69,300,23,38,24,078,19,43,44,050,19,1*48
$GBGSV,1,1,04,07,12,075,19,08,24,091,23,11,23,045,17,13,23,102,28,B*04
$GBGSV,3,1,10,02,18,118,,03,00,097,,10,24,073,,25,04,137,,0*7F
$GBGSV,3,2,10,27,21,222,,34,00,047,,40,02,067,,46,15,313,,0*77
$GBGSV,3,3,10,60,22,120,,61,00,097,,0*7A
$GQGSV,1,1,00,0*64
$GNGLL,4044.68751,N,03136.83504,E,173028.00,A,D*79
$GNRMC,173029.00,A,4044.68751,N,03136.83504,E,0.065,,181124,,,D,V*17
$GNVTG,,T,,M,0.065,N,0.120,K,D*38
$GNGGA,173029.00,4044.68751,N,03136.83504,E,2,12,0.59,751.5,M,36.4,M,,0123*43
$GNGSA,A,3,32,06,12,11,29,24,20,25,28,,,,0.99,0.59,0.79,1*05
$GNGSA,A,3,83,74,84,73,75,,,,,,,,0.99,0.59,0.79,2*02
$GNGSA,A,3,27,21,15,13,04,,,,,,,,0.99,0.59,0.79,3*05
$GNGSA,A,3,23,28,37,38,43,11,13,,,,,,0.99,0.59,0.79,4*07
$GNGSA,A,3,,,,,,,,,,,,,0.99,0.59,0.79,5*07
$GPGSV,3,1,10,06,18,040,20,11,50,073,29,12,61,083,31,20,17,106,22,1*6A
$GPGSV,3,2,10,24,25,175,11,25,65,321,12,28,25,314,33,29,46,253,29,1*6C
$GPGSV,3,3,10,32,11,271,29,36,42,192,34,1*65
$GPGSV,2,1,08,06,18,040,25,11,50,073,28,12,61,083,21,24,25,175,14,6*64
$GPGSV,2,2,08,25,65,321,13,28,25,314,34,29,46,253,21,32,11,271,19,6*62
$GPGSV,1,1,03,05,04,135,,18,00,201,,49,36,218,,0*59
$GLGSV,2,1,06,73,46,125,28,74,77,018,16,75,27,322,32,83,25,032,22,1*72
$GLGSV,2,2,06,84,84,151,24,85,30,208,21,1*7A
$GLGSV,2,1,06,65,00,303,08,73,46,125,26,75,27,322,19,83,25,032,19,3*79
$GLGSV,2,2,06,84,84,151,31,85,30,208,22,3*7F
$GLGSV,1,1,01,66,03,348,,0*44
$GAGSV,2,1,05,04,10,310,31,13,54,149,28,15,44,059,24,21,65,323,25,2*7B
$GAGSV,2,2,05,27,51,091,25,2*4D
$GAGSV,2,1,07,04,10,310,32,13,54,149,17,15,44,059,26,21,65,323,26,7*72
$GAGSV,2,2,07,23,,,27,27,51,091,37,34,02,030,09,7*72
$GAGSV,2,1,05,06,02,332,,19,15,254,,26,13,191,,29,04,213,,0*7B
$GAGSV,2,2,05,30,03,107,,0*47
$GBGSV,2,1,07,11,23,045,16,13,23,102,25,23,54,143,32,28,67,213,34,1*79
$GBGSV,2,2,07,37,69,300,23,38,24,078,19,43,44,050,19,1*48
$GBGSV,1,1,04,07,12,075,18,08,24,091,22,11,23,045,16,13,23,102,28,B*05
$GBGSV,3,1,10,02,18,118,,03,00,097,,10,24,073,,25,04,137,,0*7F
$GBGSV,3,2,10,27,21,222,,34,00,047,,40,02,067,,46,15,313,,0*77
$GBGSV,3,3,10,60,22,120,,61,00,097,,0*7A
$GQGSV,1,1,00,0*64
$GNGLL,4044.68751,N,03136.83504,E,173029.00,A,D*78
$GNRMC,173030.00,A,4044.68750,N,03136.83503,E,0.035,,181124,,,D,V*1C
$GNVTG,,T,,M,0.035,N,0.066,K,D*3E
$GNGGA,173030.00,4044.68750,N,03136.83503,E,2,12,0.59,751.5,M,36.4,M,,0123*4D
$GNGSA,A,3,32,06,12,11,29,24,20,25,28,,,,0.99,0.59,0.79,1*05
$GNGSA,A,3,83,74,84,73,75,,,,,,,,0.99,0.59,0.79,2*02
$GNGSA,A,3,27,21,15,13,04,,,,,,,,0.99,0.59,0.79,3*05
$GNGSA,A,3,23,28,37,38,43,11,13,,,,,,0.99,0.59,0.79,4*07
$GNGSA,A,3,,,,,,,,,,,,,0.99,0.59,0.79,5*07
$GPGSV,3,1,10,06,18,040,20,11,50,073,29,12,61,083,31,20,17,106,22,1*6A
$GPGSV,3,2,10,24,25,175,13,25,65,321,14,28,25,314,33,29,46,253,29,1*68
$GPGSV,3,3,10,32,11,271,29,36,42,192,34,1*65
$GPGSV,2,1,08,06,18,040,25,11,50,073,27,12,61,083,20,24,25,175,14,6*6A
$GPGSV,2,2,08,25,65,321,13,28,25,314,34,29,46,253,21,32,11,271,18,6*63
$GPGSV,1,1,03,05,04,135,,18,00,201,,49,36,218,,0*59
$GLGSV,2,1,06,73,46,125,28,74,77,018,16,75,27,322,32,83,25,032,22,1*72
$GLGSV,2,2,06,84,84,151,24,85,30,208,22,1*79
$GLGSV,2,1,06,65,00,303,08,73,46,125,26,75,27,322,19,83,25,032,18,3*78
$GLGSV,2,2,06,84,84,151,30,85,30,208,22,3*7E
$GLGSV,1,1,01,66,03,348,,0*44
$GAGSV,2,1,05,04,10,310,30,13,54,149,28,15,44,059,24,21,65,323,25,2*7A
$GAGSV,2,2,05,27,51,091,25,2*4D
$GAGSV,2,1,07,04,10,310,32,13,54,149,16,15,44,059,25,21,65,323,25,7*73
$GAGSV,2,2,07,23,,,27,27,51,091,37,34,02,030,11,7*7B
$GAGSV,2,1,05,06,02,332,,19,15,254,,26,13,191,,29,04,213,,0*7B
$GAGSV,2,2,05,30,03,107,,0*47
$GBGSV,2,1,07,11,23,045,17,13,23,102,25,23,54,143,32,28,67,213,34,1*78
$GBGSV,2,2,07,37,69,300,24,38,24,078,19,43,44,050,18,1*4E
$GBGSV,1,1,04,07,12,075,18,08,24,091,22,11,23,045,17,13,23,102,28,B*04
$GBGSV,3,1,10,02,18,118,,03,00,097,,10,24,073,,25,04,137,,0*7F
$GBGSV,3,2,10,27,21,222,,34,00,047,,40,02,067,,46,15,313,,0*77
$GBGSV,3,3,10,60,22,120,,61,00,097,,0*7A
$GQGSV,1,1,00,0*64
$GNGLL,4044.68750,N,03136.83503,E,173030.00,A,D*76
$GNRMC,173031.00,A,4044.68748,N,03136.83502,E,0.044,,181124,,,D,V*13
$GNVTG,,T,,M,0.044,N,0.082,K,D*32
$GNGGA,173031.00,4044.68748,N,03136.83502,E,2,12,0.59,751.5,M,36.4,M,,0123*44
$GNGSA,A,3,32,06,12,11,29,24,20,25,28,,,,0.99,0.59,0.79,1*05
$GNGSA,A,3,83,74,84,73,75,,,,,,,,0.99,0.59,0.79,2*02
$GNGSA,A,3,27,21,15,13,04,,,,,,,,0.99,0.59,0.79,3*05
$GNGSA,A,3,23,28,37,38,43,11,13,,,,,,0.99,0.59,0.79,4*07
$GNGSA,A,3,,,,,,,,,,,,,0.99,0.59,0.79,5*07
$GPGSV,3,1,10,06,18,040,20,11,50,073,29,12,61,083,31,20,18,105,22,1*66
$GPGSV,3,2,10,24,25,175,15,25,65,321,15,28,25,314,33,29,46,253,29,1*6F
$GPGSV,3,3,10,32,11,271,29,36,42,192,34,1*65
$GPGSV,2,1,08,06,18,040,25,11,50,073,28,12,61,083,20,24,25,175,14,6*65
$GPGSV,2,2,08,25,65,321,14,28,25,314,34,29,46,253,21,32,11,271,18,6*64
$GPGSV,1,1,03,05,04,135,,18,00,201,,49,36,218,,0*59
$GLGSV,2,1,06,73,46,125,28,74,77,018,16,75,27,322,32,83,25,032,21,1*71
$GLGSV,2,2,06,84,84,151,24,85,30,208,23,1*78
$GLGSV,2,1,06,65,00,303,09,73,46,125,26,75,27,322,19,83,25,032,18,3*79
$GLGSV,2,2,06,84,84,151,30,85,30,208,22,3*7E
$GLGSV,1,1,01,66,03,348,,0*44
$GAGSV,2,1,05,04,10,310,30,13,54,149,28,15,44,059,24,21,65,323,25,2*7A
$GAGSV,2,2,05,27,51,091,25,2*4D
$GAGSV,2,1,07,04,10,310,32,13,54,149,16,15,44,059,26,21,65,323,25,7*70
$GAGSV,2,2,07,23,,,27,27,51,091,37,34,02,030,10,7*7A
$GAGSV,2,1,05,06,02,332,,19,15,254,,26,13,191,,29,04,213,,0*7B
$GAGSV,2,2,05,30,03,107,,0*47
$GBGSV,2,1,07,11,23,045,17,13,23,102,25,23,54,143,32,28,67,213,34,1*78
$GBGSV,2,2,07,37,69,300,24,38,24,078,20,43,44,050,18,1*44
$GBGSV,1,1,04,07,12,075,18,08,24,091,22,11,23,045,17,13,23,102,28,B*04
$GBGSV,3,1,10,02,18,118,,03,00,097,,10,24,073,,25,04,137,,0*7F
$GBGSV,3,2,10,27,21,222,,34,00,047,,40,02,067,,46,15,313,,0*77
$GBGSV,3,3,10,60,22,120,,61,00,097,,0*7A
$GQGSV,1,1,00,0*64
$GNGLL,4044.68748,N,03136.83502,E,173031.00,A,D*7F
$GNRMC,173032.00,A,4044.68749,N,03136.83502,E,0.081,,181124,,,D,V*18
$GNVTG,,T,,M,0.081,N,0.151,K,D*34
$GNGGA,173032.00,4044.68749,N,03136.83502,E,2,12,0.59,751.5,M,36.4,M,,0123*46
$GNGSA,A,3,32,06,12,11,29,24,20,25,28,,,,0.99,0.59,0.79,1*05
$GNGSA,A,3,83,74,84,73,75,,,,,,,,0.99,0.59,0.79,2*02
$GNGSA,A,3,27,21,15,13,04,,,,,,,,0.99,0.59,0.79,3*05
$GNGSA,A,3,23,28,37,38,43,11,13,,,,,,0.99,0.59,0.79,4*07
$GNGSA,A,3,,,,,,,,,,,,,0.99,0.59,0.79,5*07
$GPGSV,3,1,10,06,18,040,20,11,50,073,29,12,61,083,31,20,18,105,21,1*65
$GPGSV,3,2,10,24,25,175,12,25,65,321,15,28,25,314,33,29,46,253,29,1*68
$GPGSV,3,3,10,32,11,271,29,36,42,192,34,1*65
$GPGSV,2,1,08,06,18,040,25,11,50,073,27,12,61,083,20,24,25,175,13,6*6D
$GPGSV,2,2,08,25,65,321,13,28,25,314,34,29,46,253,20,32,11,271,18,6*62
$GPGSV,1,1,03,05,04,135,,18,00,201,,49,36,218,,0*59
$GLGSV,2,1,06,73,46,125,28,74,77,018,16,75,27,322,32,83,25,032,21,1*71
$GLGSV,2,2,06,84,84,151,23,85,30,208,23,1*7F
$GLGSV,2,1,06,65,00,303,09,73,46,125,25,75,27,322,20,83,25,032,18,3*70
$GLGSV,2,2,06,84,84,151,30,85,30,208,22,3*7E
$GLGSV,1,1,01,66,03,348,,0*44
$GAGSV,2,1,05,04,10,310,30,13,54,149,28,15,44,059,23,21,65,323,25,2*7D
$GAGSV,2,2,05,27,51,091,25,2*4D
$GAGSV,2,1,07,04,10,310,32,13,54,149,14,15,44,059,26,21,65,323,25,7*72
$GAGSV,2,2,07,23,,,27,27,51,091,37,34,02,030,07,7*7C
$GAGSV,2,1,05,06,02,332,,19,15,254,,26,13,191,,29,04,213,,0*7B
$GAGSV,2,2,05,30,03,107,,0*47
$GBGSV,2,1,07,11,23,045,17,13,23,102,25,23,54,143,32,28,67,213,34,1*78
$GBGSV,2,2,07,37,69,300,24,38,24,078,20,43,44,050,18,1*44
$GBGSV,1,1,04,07,12,075,17,08,24,091,23,11,23,045,18,13,23,102,28,B*05
$GBGSV,3,1,10,02,18,118,,03,00,097,,10,24,073,,25,04,137,,0*7F
$GBGSV,3,2,10,27,21,222,,34,00,047,,40,02,067,,46,15,313,,0*77
$GBGSV,3,3,10,60,22,120,,61,00,097,,0*7A
$GQGSV,1,1,00,0*64
$GNGLL,4044.68749,N,03136.83502,E,173032.00,A,D*7D
$GNRMC,173033.00,A,4044.68749,N,03136.83501,E,0.008,,181124,,,D,V*1B
$GNVTG,,T,,M,0.008,N,0.014,K,D*35
$GNGGA,173033.00,4044.68749,N,03136.83501,E,2,12,0.59,751.6,M,36.4,M,,0123*47
$GNGSA,A,3,32,06,12,11,29,24,20,25,28,,,,0.99,0.59,0.79,1*05
$GNGSA,A,3,83,74,84,73,75,,,,,,,,0.99,0.59,0.79,2*02
$GNGSA,A,3,27,21,15,13,04,,,,,,,,0.99,0.59,0.79,3*05
$GNGSA,A,3,23,28,37,38,43,11,13,,,,,,0.99,0.59,0.79,4*07
$GNGSA,A,3,,,,,,,,,,,,,0.99,0.59,0.79,5*07
$GPGSV,3,1,10,06,18,040,19,11,50,073,29,12,61,083,31,20,18,105,21,1*6F
$GPGSV,3,2,10,24,25,175,11,25,65,321,15,28,25,314,33,29,46,253,28,1*6A
$GPGSV,3,3,10,32,11,271,29,36,42,192,34,1*65
$GPGSV,2,1,08,06,18,040,25,11,50,073,27,12,61,083,20,24,25,175,12,6*6C
$GPGSV,2,2,08,25,65,321,12,28,25,314,34,29,46,253,20,32,11,271,18,6*63
$GPGSV,1,1,03,05,04,135,,18,00,201,,49,36,218,,0*59
$GLGSV,2,1,06,73,46,125,28,74,77,018,17,75,27,322,32,83,25,032,22,1*73
$GLGSV,2,2,06,84,84,151,23,85,30,208,23,1*7F
$GLGSV,2,1,06,65,00,303,09,73,46,125,25,75,27,322,20,83,25,032,17,3*7F
$GLGSV,2,2,06,84,84,151,30,85,30,208,22,3*7E
$GLGSV,1,1,01,66,03,348,,0*44
$GAGSV,2,1,05,04,10,310,30,13,54,149,28,15,44,059,24,21,65,323,25,2*7A
$GAGSV,2,2,05,27,51,091,25,2*4D
$GAGSV,2,1,07,04,10,310,32,13,54,149,13,15,44,059,26,21,65,323,25,7*75
$GAGSV,2,2,07,23,,,27,27,51,091,37,34,02,030,11,7*7B
$GAGSV,2,1,05,06,02,332,,19,15,254,,26,13,191,,29,04,213,,0*7B
$GAGSV,2,2,05,30,03,107,,0*47
$GBGSV,2,1,07,11,23,045,18,13,23,102,26,23,54,143,32,28,67,213,34,1*74
$GBGSV,2,2,07,37,69,300,25,38,24,078,19,43,44,050,19,1*4E
$GBGSV,1,1,04,07,12,075,18,08,24,091,22,11,23,045,18,13,23,102,28,B*0B
$GBGSV,3,1,10,02,18,118,,03,00,097,,10,24,073,,25,04,137,,0*7F
$GBGSV,3,2,10,27,21,222,,34,00,047,,40,02,067,,46,15,313,,0*77
$GBGSV,3,3,10,60,22,120,,61,00,097,,0*7A
$GQGSV,1,1,00,0*64
$GNGLL,4044.68749,N,03136.83501,E,173033.00,A,D*7F
$GNRMC,173034.00,A,4044.68750,N,03136.83500,E,0.034,,181124,,,D,V*1A
$GNVTG,,T,,M,0.034,N,0.063,K,D*3A
$GNGGA,173034.00,4044.68750,N,03136.83500,E,2,12,0.59,751.7,M,36.4,M,,0123*48
$GNGSA,A,3,32,06,12,11,29,24,20,25,28,,,,0.99,0.59,0.79,1*05
$GNGSA,A,3,83,74,84,73,75,,,,,,,,0.99,0.59,0.79,2*02
$GNGSA,A,3,27,21,15,13,04,,,,,,,,0.99,0.59,0.79,3*05
$GNGSA,A,3,23,28,37,38,43,11,13,,,,,,0.99,0.59,0.79,4*07
$GNGSA,A,3,,,,,,,,,,,,,0.99,0.59,0.79,5*07
$GPGSV,3,1,10,06,18,040,19,11,50,073,29,12,61,083,31,20,18,105,21,1*6F
$GPGSV,3,2,10,24,25,175,10,25,65,321,16,28,25,314,33,29,46,253,28,1*68
$GPGSV,3,3,10,32,11,271,29,36,42,192,34,1*65
$GPGSV,2,1,08,06,18,040,25,11,50,073,28,12,61,083,20,24,25,175,13,6*62
$GPGSV,2,2,08,25,65,321,13,28,25,314,34,29,46,253,20,32,11,271,19,6*63
$GPGSV,1,1,03,05,04,135,,18,00,201,,49,36,218,,0*59
$GLGSV,2,1,06,73,46,125,28,74,77,018,17,75,27,322,32,83,25,032,22,1*73
$GLGSV,2,2,06,84,84,151,24,85,30,208,23,1*78
$GLGSV,2,1,06,65,00,303,09,73,46,125,25,75,27,322,20,83,25,032,17,3*7F
$GLGSV,2,2,06,84,84,151,30,85,30,208,22,3*7E
$GLGSV,1,1,01,66,03,348,,0*44
$GAGSV,2,1,05,04,10,310,30,13,54,149,28,15,44,059,24,21,65,323,25,2*7A
$GAGSV,2,2,05,27,51,091,25,2*4D
$GAGSV,2,1,07,04,10,310,32,13,54,149,13,15,44,059,26,21,65,323,26,7*76
$GAGSV,2,2,07,23,,,27,27,51,091,37,34,02,030,06,7*7D
$GAGSV,2,1,05,06,02,332,,19,15,254,,26,13,191,,29,04,213,,0*7B
$GAGSV,2,2,05,30,03,107,,0*47
$GBGSV,2,1,07,11,23,045,18,13,23,102,25,23,54,143,32,28,67,213,34,1*77
$GBGSV,2,2,07,37,69,300,25,38,24,078,19,43,44,050,19,1*4E
$GBGSV,1,1,04,07,12,075,18,08,24,091,22,11,23,045,17,13,23,102,28,B*04
$GBGSV,3,1,10,02,18,118,,03,00,097,,10,24,073,,25,04,137,,0*7F
$GBGSV,3,2,10,27,21,222,,34,00,047,,40,02,067,,46,15,313,,0*77
$GBGSV,3,3,10,60,22,120,,61,00,097,,0*7A
$GQGSV,1,1,00,0*64
$GNGLL,4044.68750,N,03136.83500,E,173034.00,A,D*71
$GNRMC,173035.00,A,4044.68751,N,03136.83500,E,0.055,,181124,,,D,V*1D
$GNVTG,,T,,M,0.055,N,0.102,K,D*3B
$GNGGA,173035.00,4044.68751,N,03136.83500,E,2,12,0.59,751.7,M,36.4,M,,0123*48
$GNGSA,A,3,32,06,12,11,29,24,20,25,28,,,,0.99,0.59,0.79,1*05
$GNGSA,A,3,83,74,84,73,75,,,,,,,,0.99,0.59,0.79,2*02
$GNGSA,A,3,27,21,15,13,04,,,,,,,,0.99,0.59,0.79,3*05
$GNGSA,A,3,23,28,37,38,43,11,13,,,,,,0.99,0.59,0.79,4*07
$GNGSA,A,3,,,,,,,,,,,,,0.99,0.59,0.79,5*07
$GPGSV,3,1,10,06,18,040,20,11,50,073,29,12,61,083,31,20,18,105,21,1*65
$GPGSV,3,2,10,24,24,175,10,25,65,321,16,28,25,314,33,29,46,253,28,1*69
$GPGSV,3,3,10,32,11,271,29,36,42,192,34,1*65
$GPGSV,2,1,08,06,18,040,25,11,50,073,28,12,61,083,21,24,24,175,10,6*61
$GPGSV,2,2,08,25,65,321,14,28,25,314,34,29,46,253,20,32,11,271,18,6*65
$GPGSV,1,1,03,05,04,135,,18,00,201,,49,36,218,,0*59
$GLGSV,2,1,06,73,46,125,28,74,77,018,18,75,27,322,32,83,25,032,22,1*7C
$GLGSV,2,2,06,84,84,151,24,85,30,208,23,1*78
$GLGSV,2,1,06,65,00,303,11,73,46,125,25,75,27,322,20,83,25,032,17,3*76
$GLGSV,2,2,06,84,84,151,30,85,30,208,22,3*7E
$GLGSV,1,1,01,66,03,348,,0*44
$GAGSV,2,1,05,04,10,310,30,13,54,149,28,15,44,059,25,21,65,323,25,2*7B
$GAGSV,2,2,05,27,51,091,25,2*4D
$GAGSV,2,1,07,04,10,310,32,13,54,149,12,15,44,059,26,21,65,323,26,7*77
$GAGSV,2,2,07,23,,,27,27,51,091,37,34,02,030,11,7*7B
$GAGSV,2,1,05,06,02,332,,19,15,254,,26,13,191,,29,04,213,,0*7B
$GAGSV,2,2,05,30,03,107,,0*47
$GBGSV,2,1,07,11,23,045,18,13,23,102,26,23,54,143,32,28,67,213,34,1*74
$GBGSV,2,2,07,37,69,300,25,38,24,078,19,43,44,050,19,1*4E
$GBGSV,1,1,04,07,12,075,18,08,24,091,22,11,23,045,16,13,23,102,28,B*05
$GBGSV,3,1,10,02,18,118,,03,00,097,,10,24,073,,25,04,137,,0*7F
$GBGSV,3,2,10,27,21,222,,34,00,047,,40,02,067,,46,15,313,,0*77
$GBGSV,3,3,10,60,22,120,,61,00,097,,0*7A
$GQGSV,1,1,00,0*64
$GNGLL,4044.68751,N,03136.83500,E,173035.00,A,D*71
$GNRMC,173036.00,A,4044.68749,N,03136.83499,E,0.056,,181124,,,D,V*15
$GNVTG,,T,,M,0.056,N,0.104,K,D*3E
$GNGGA,173036.00,4044.68749,N,03136.83499,E,2,12,0.59,751.7,M,36.4,M,,0123*43
$GNGSA,A,3,32,06,12,11,29,24,20,25,28,,,,0.99,0.59,0.79,1*05
$GNGSA,A,3,83,74,84,73,75,,,,,,,,0.99,0.59,0.79,2*02
$GNGSA,A,3,27,21,15,13,04,,,,,,,,0.99,0.59,0.79,3*05
$GNGSA,A,3,23,28,37,38,43,11,13,,,,,,0.99,0.59,0.79,4*07
$GNGSA,A,3,,,,,,,,,,,,,0.99,0.59,0.79,5*07
$GPGSV,3,1,10,06,18,040,20,11,50,073,29,12,61,083,31,20,18,105,21,1*65
$GPGSV,3,2,10,24,24,175,07,25,66,322,16,28,25,314,33,29,46,253,29,1*6E
$GPGSV,3,3,10,32,11,271,30,36,42,192,34,1*6D
$GPGSV,2,1,08,06,18,040,25,11,50,073,28,12,61,083,20,24,24,175,11,6*61
$GPGSV,2,2,08,25,66,322,14,28,25,314,34,29,46,253,20,32,11,271,17,6*6A
$GPGSV,1,1,03,05,04,135,,18,00,201,,49,36,218,,0*59
$GLGSV,2,1,06,73,46,125,28,74,77,018,19,75,27,322,32,83,25,032,22,1*7D
$GLGSV,2,2,06,84,84,151,24,85,30,208,23,1*78
$GLGSV,2,1,06,65,00,303,09,73,46,125,25,75,27,322,21,83,25,032,17,3*7E
$GLGSV,2,2,06,84,84,151,30,85,30,208,22,3*7E
$GLGSV,1,1,01,66,03,348,,0*44
$GAGSV,2,1,05,04,10,310,30,13,54,149,28,15,44,059,25,21,65,323,25,2*7B
$GAGSV,2,2,05,27,51,091,25,2*4D
$GAGSV,2,1,07,04,10,310,32,13,54,149,12,15,44,059,26,21,65,323,26,7*77
$GAGSV,2,2,07,23,,,27,27,51,091,37,34,02,030,10,7*7A
$GAGSV,2,1,05,06,02,332,,19,15,254,,26,13,191,,29,04,213,,0*7B
$GAGSV,2,2,05,30,03,107,,0*47
$GBGSV,2,1,07,11,23,045,17,13,23,102,26,23,54,143,32,28,67,213,34,1*7B
$GBGSV,2,2,07,37,69,300,25,38,24,078,20,43,44,050,18,1*45
$GBGSV,1,1,04,07,12,075,18,08,24,091,22,11,23,045,17,13,23,102,28,B*04
$GBGSV,3,1,10,02,18,118,,03,00,097,,10,24,073,,25,04,137,,0*7F
$GBGSV,3,2,10,27,21,222,,34,00,047,,40,02,067,,46,15,313,,0*77
$GBGSV,3,3,10,60,22,120,,61,00,097,,0*7A
$GQGSV,1,1,00,0*64
$GNGLL,4044.68749,N,03136.83499,E,173036.00,A,D*7A
$GNRMC,173037.00,A,4044.68748,N,03136.83498,E,0.019,,181124,,,D,V*1F
$GNVTG,,T,,M,0.019,N,0.034,K,D*37
$GNGGA,173037.00,4044.68748,N,03136.83498,E,2,12,0.59,751.7,M,36.4,M,,0123*42
$GNGSA,A,3,32,06,12,11,29,24,20,25,28,,,,0.99,0.59,0.79,1*05
$GNGSA,A,3,83,74,84,73,75,,,,,,,,0.99,0.59,0.79,2*02
$GNGSA,A,3,27,21,15,13,04,,,,,,,,0.99,0.59,0.79,3*05
$GNGSA,A,3,23,28,37,38,43,11,13,,,,,,0.99,0.59,0.79,4*07
$GNGSA,A,3,,,,,,,,,,,,,0.99,0.59,0.79,5*07
$GPGSV,3,1,10,06,18,040,20,11,50,073,29,12,61,083,31,20,18,105,21,1*65
$GPGSV,3,2,10,24,24,175,14,25,66,322,15,28,25,314,33,29,46,253,29,1*6F
$GPGSV,3,3,10,32,11,271,29,36,42,192,34,1*65
$GPGSV,2,1,07,06,18,040,25,11,50,073,28,12,61,083,21,25,66,322,13,6*6A
$GPGSV,2,2,07,28,25,314,34,29,46,253,21,32,11,271,17,6*55
$GPGSV,1,1,03,05,04,135,,18,00,201,,49,36,218,,0*59
$GLGSV,2,1,06,73,46,125,28,74,77,018,18,75,27,322,32,83,25,032,22,1*7C
$GLGSV,2,2,06,84,84,151,23,85,30,208,23,1*7F
$GLGSV,2,1,06,65,00,303,11,73,46,125,25,75,27,322,20,83,25,032,16,3*77
$GLGSV,2,2,06,84,84,151,30,85,30,208,22,3*7E
$GLGSV,1,1,01,66,03,348,,0*44
$GAGSV,2,1,05,04,10,310,30,13,54,149,28,15,44,059,25,21,65,323,25,2*7B
$GAGSV,2,2,05,27,51,091,25,2*4D
$GAGSV,2,1,07,04,10,310,32,13,54,149,13,15,44,059,25,21,65,323,26,7*75
$GAGSV,2,2,07,23,,,27,27,51,091,37,34,02,030,12,7*78
$GAGSV,2,1,05,06,02,332,,19,15,254,,26,13,191,,29,04,213,,0*7B
$GAGSV,2,2,05,30,03,107,,0*47
